City,Lat,Lng,Max Temp,Humidity,Cloudiness,Wind Speed,Country,Date,Max_Temp,Cloudiness ,Wind_Speed
marcona,,,,,,,,,,,
Champerico,14.3,-91.9167,,80,,,GT,1634951887,83.35,44.0,6.35
Zhigansk,66.7697,123.3711,,95,,,RU,1634951887,19.09,100.0,5.3
Svetlaya,46.5389,138.3297,,43,,,RU,1634951888,45.19,4.0,5.53
Necochea,-38.5473,-58.7368,,91,,,AR,1634951888,52.03,100.0,6.51
Saint-Louis,16.3333,-15,,15,,,SN,1634951888,82.53,10.0,9.19
Hermanus,-34.4187,19.2345,,87,,,ZA,1634951888,57.79,100.0,27.0
Hobart,-42.8794,147.3294,,93,,,AU,1634951889,56.01,75.0,1.01
Hong Kong,22.2855,114.1577,,76,,,HK,1634951655,70.25,88.0,1.01
Punta Arenas,-53.15,-70.9167,,81,,,CL,1634951889,39.31,75.0,35.68
Mataura,-46.1927,168.8643,,40,,,NZ,1634951889,71.69,99.0,0.94
Rikitea,-23.1203,-134.9692,,82,,,PF,1634951825,74.1,11.0,20.78
Bethel,41.3712,-73.414,,73,,,US,1634951890,61.11,90.0,4.61
Avarua,-21.2078,-159.775,,64,,,CK,1634951659,73.45,100.0,5.75
phan rang,,,,,,,,,,,
Grindavik,63.8424,-22.4338,,100,,,IS,1634951890,47.89,90.0,14.97
Butaritari,3.0707,172.7902,,78,,,KI,1634951891,82.13,71.0,18.52
Bluff,-46.6,168.3333,,65,,,NZ,1634951891,57.09,99.0,9.53
Khanbari,27.3747,87.2039,,95,,,NP,1634951891,64.0,99.0,0.6
Bredasdorp,-34.5322,20.0403,,72,,,ZA,1634951892,57.27,100.0,23.02
Jamestown,42.097,-79.2353,,87,,,US,1634951790,46.29,90.0,4.61
Vaini,-21.2,-175.2,,78,,,TO,1634951892,77.16,75.0,11.5
Belyy Yar,53.6039,91.3903,,75,,,RU,1634951892,37.29,0.0,11.18
kamenskoye,,,,,,,,,,,
Katherine,-14.4667,132.2667,,49,,,AU,1634951893,91.72,75.0,8.05
Kapaa,22.0752,-159.319,,83,,,US,1634951893,82.38,40.0,1.99
Saldanha,-33.0117,17.9442,,88,,,ZA,1634951893,57.09,100.0,22.82
Cape Town,-33.9258,18.4232,,87,,,ZA,1634951884,58.08,75.0,4.0
Ushuaia,-54.8,-68.3,,75,,,AR,1634951755,40.66,75.0,12.66
Albany,42.6001,-73.9662,,78,,,US,1634951658,49.46,8.0,5.55
Hashimoto,34.3167,135.6167,,50,,,JP,1634951894,63.28,59.0,13.38
Pisco,-13.7,-76.2167,,82,,,PE,1634951885,61.02,0.0,16.11
Alice Springs,-23.7,133.8833,,28,,,AU,1634951818,80.15,0.0,17.27
Kirakira,-10.4544,161.9205,,59,,,SB,1634951895,86.04,6.0,8.3
Maniitsoq,65.4167,-52.9,,47,,,GL,1634951895,26.91,0.0,6.04
Antofagasta,-23.65,-70.4,,77,,,CL,1634951841,58.28,48.0,4.68
Henties Bay,-22.116,14.2845,,87,,,NA,1634951895,57.85,0.0,3.56
Domna,51.8971,113.1573,,86,,,RU,1634951896,24.96,0.0,0.0
Puerto Vallarta,20.6204,-105.2307,,74,,,MX,1634951896,85.91,90.0,0.0
Kavaratti,10.5669,72.642,,76,,,IN,1634951896,81.82,40.0,3.78
Busselton,-33.65,115.3333,,59,,,AU,1634951897,63.09,0.0,4.9
Hithadhoo,-0.6,73.0833,,73,,,MV,1634951897,82.02,100.0,11.52
Marsá Maţrūḩ,31.3525,27.2453,,63,,,EG,1634951897,64.6,40.0,2.3
Amapá,1,-52,,99,,,BR,1634951897,71.56,90.0,3.15
Asilah,35.465,-6.0348,,80,,,MA,1634951898,57.16,0.0,5.61
São Filipe,14.8961,-24.4956,,65,,,CV,1634951898,80.71,0.0,4.99
Linguère,15.3953,-15.1193,,14,,,SN,1634951898,79.93,5.0,9.51
Rexburg,43.826,-111.7897,,25,,,US,1634951899,60.78,90.0,9.22
Megion,61.0296,76.1136,,97,,,RU,1634951899,33.82,100.0,15.5
Vao,-22.6667,167.4833,,79,,,NC,1634951899,73.09,0.0,6.35
Santa Ana,33.7456,-117.8678,,79,,,US,1634951810,71.17,75.0,1.01
Westport,41.1415,-73.3579,,78,,,US,1634951900,63.32,90.0,4.0
Nyurba,63.2842,118.3319,,88,,,RU,1634951900,32.94,55.0,8.46
Maningrida,-12.0667,134.2667,,51,,,AU,1634951900,90.95,29.0,11.05
Dikson,73.5069,80.5464,,87,,,RU,1634951897,13.77,100.0,16.58
Alofi,-19.0595,-169.9187,,53,,,NU,1634951901,78.69,100.0,16.11
Vangaindrano,-23.35,47.6,,83,,,MG,1634951901,68.72,100.0,0.98
Morón,-34.6534,-58.6198,,88,,,AR,1634951901,60.49,100.0,5.99
Chokurdakh,70.6333,147.9167,,99,,,RU,1634951902,-10.8,99.0,2.95
Touros,-5.1989,-35.4608,,80,,,BR,1634951685,81.5,34.0,10.42
Hamilton,39.1834,-84.5333,,96,,,US,1634951902,53.76,90.0,1.01
Nikolskoye,59.7035,30.7861,,74,,,RU,1634951884,44.87,100.0,12.84
mys shmidta,,,,,,,,,,,
Norman Wells,65.282,-126.8329,,70,,,CA,1634951902,42.84,20.0,14.97
Port Elizabeth,-33.918,25.5701,,77,,,ZA,1634951903,57.49,0.0,4.61
sentyabrskiy,,,,,,,,,,,
Talcahuano,-36.7167,-73.1167,,66,,,CL,1634951715,51.48,0.0,18.41
Fredericton,45.9454,-66.6656,,99,,,CA,1634951816,56.44,75.0,5.75
Castro,-24.7911,-50.0119,,79,,,BR,1634951903,56.19,0.0,3.71
Tuatapere,-46.1333,167.6833,,53,,,NZ,1634951904,65.59,95.0,4.25
Thompson,55.7435,-97.8558,,86,,,CA,1634951904,30.36,75.0,3.44
Blahodatne,50.6637,24.2492,,53,,,UA,1634951904,46.24,16.0,18.03
Charlestown,-32.95,151.6667,,60,,,AU,1634951696,89.22,1.0,3.0
Wagar,16.1525,36.2032,,50,,,SD,1634951905,79.34,7.0,9.33
Ponta do Sol,32.6667,-17.1,,67,,,PT,1634951905,68.72,49.0,7.74
Batagay-Alyta,67.8006,130.4114,,94,,,RU,1634951906,7.79,100.0,0.43
khonuu,,,,,,,,,,,
Ilulissat,69.2167,-51.1,,58,,,GL,1634951906,19.42,97.0,11.5
Cataguases,-21.3892,-42.6967,,88,,,BR,1634951906,67.57,85.0,3.83
Newport,51.5877,-2.9984,,86,,,GB,1634951907,52.45,100.0,5.35
saleaula,,,,,,,,,,,
Taoudenni,22.6783,-3.9836,,27,,,ML,1634951907,78.15,0.0,7.78
Lexington Park,38.2668,-76.4538,,86,,,US,1634951908,61.66,75.0,5.75
Husavik,66.0449,-17.3389,,94,,,IS,1634951908,31.91,100.0,8.39
Zhangye,38.9342,100.4517,,36,,,CN,1634951908,47.14,48.0,2.91
Lavrentiya,65.5833,-171,,82,,,RU,1634951908,24.28,100.0,12.95
Atuona,-9.8,-139.0333,,79,,,PF,1634951896,77.9,23.0,16.69
Beringovskiy,63.05,179.3167,,80,,,RU,1634951909,17.62,100.0,14.27
Young,-32.6833,-57.6333,,76,,,UY,1634951909,61.48,100.0,9.24
Kumul,42.8,93.45,,28,,,CN,1634951909,51.64,6.0,11.05
jubayl,,,,,,,,,,,
satitoa,,,,,,,,,,,
Sholokhove,47.6945,34.0312,,75,,,UA,1634951910,54.21,99.0,7.61
Mount Gambier,-37.8333,140.7667,,84,,,AU,1634951910,55.76,30.0,7.23
Kununurra,-15.7667,128.7333,,49,,,AU,1634951911,94.98,6.0,10.36
Bubaque,11.2833,-15.8333,,76,,,GW,1634951894,83.14,76.0,11.81
Tuktoyaktuk,69.4541,-133.0374,,100,,,CA,1634951911,33.8,90.0,13.8
Trairi,-3.2778,-39.2689,,78,,,BR,1634951768,79.84,99.0,8.75
Saint-Philippe,-21.3585,55.7679,,81,,,RE,1634951911,72.95,33.0,7.99
Faanui,-16.4833,-151.75,,84,,,PF,1634951912,78.39,65.0,22.28
Oktyabr'skoye,43.0645,44.7417,,93,,,RU,1634951912,33.94,0.0,4.47
Berlevåg,70.8578,29.0864,,63,,,NO,1634951912,33.82,100.0,18.37
Ostrovnoy,68.0531,39.5131,,65,,,RU,1634951912,34.27,100.0,22.75
Nouadhibou,20.931,-17.0347,,73,,,MR,1634951913,71.58,59.0,14.97
Tilichiki,60.4667,166.1,,80,,,RU,1634951913,9.81,17.0,6.29
illoqqortoormiut,,,,,,,,,,,
Shemonaīkha,50.6328,81.9056,,69,,,KZ,1634951913,33.28,14.0,11.1
New Norfolk,-42.7826,147.0587,,83,,,AU,1634951914,55.65,100.0,0.81
Rio Grande,-32.035,-52.0986,,83,,,BR,1634951633,60.94,7.0,8.77
Unión Hidalgo,16.4723,-94.8295,,79,,,MX,1634951914,77.13,100.0,11.79
Yumen,40.2833,97.2,,33,,,CN,1634951914,40.64,0.0,10.16
Collie,-33.3667,116.15,,49,,,AU,1634951915,60.98,0.0,4.7
Khatanga,71.9667,102.5,,96,,,RU,1634951915,0.28,96.0,9.89
Longaví,-35.9667,-71.6833,,63,,,CL,1634951915,47.52,0.0,5.32
Arraial do Cabo,-22.9661,-42.0278,,78,,,BR,1634951916,68.67,1.0,12.33
Mt. Pleasant,32.7941,-79.8626,,92,,,US,1634951916,73.99,1.0,3.0
Barrow,71.2906,-156.7887,,86,,,US,1634951625,30.22,90.0,6.91
Linhai,28.85,121.1167,,56,,,CN,1634951916,62.92,99.0,3.11
Linxia Chengguanzhen,35.6003,103.2064,,80,,,CN,1634951917,46.08,95.0,1.7
Jumla,29.2747,82.1838,,89,,,NP,1634951917,47.68,7.0,4.72
Codrington,-38.2667,141.9667,,81,,,AU,1634951918,55.99,35.0,14.38
Līsakovsk,52.5369,62.4936,,64,,,KZ,1634951918,45.14,30.0,20.18
Fidenza,44.864,10.0667,,90,,,IT,1634951918,54.05,0.0,2.08
Yuancheng,36.652,107.7896,,59,,,CN,1634951918,45.16,93.0,7.58
orjahovo,,,,,,,,,,,
Puerto Ayora,-0.7393,-90.3518,,86,,,EC,1634951904,69.94,24.0,8.3
attawapiskat,,,,,,,,,,,
Santiago,-33.4569,-70.6483,,52,,,CL,1634951767,59.85,40.0,16.11
Dingle,10.9995,122.6711,,80,,,PH,1634951919,82.31,52.0,11.54
Sabha,27.0377,14.4283,,28,,,LY,1634951919,75.16,79.0,18.01
Geraldton,-28.7667,114.6,,43,,,AU,1634951920,72.12,0.0,10.36
Port Alfred,-33.5906,26.891,,85,,,ZA,1634951861,61.41,2.0,9.89
taolanaro,,,,,,,,,,,
Honiara,-9.4333,159.95,,58,,,SB,1634951920,88.39,2.0,7.78
Hay River,60.8156,-115.7999,,57,,,CA,1634951920,44.58,20.0,17.27
Dunedin,-45.8742,170.5036,,61,,,NZ,1634951921,59.81,81.0,11.99
East London,-33.0153,27.9116,,82,,,ZA,1634951708,62.74,95.0,7.83
Sault Ste. Marie,46.5168,-84.3333,,78,,,CA,1634951808,43.9,90.0,0.0
Gobabis,-22.45,18.9667,,19,,,NA,1634951921,62.08,0.0,8.93
North Platte,41.1239,-100.7654,,56,,,US,1634951657,59.38,1.0,1.99
grand river south east,,,,,,,,,,,
Lázaro Cárdenas,17.9583,-102.2,,86,,,MX,1634951922,78.55,100.0,5.39
Araouane,18.9048,-3.5265,,22,,,ML,1634951922,79.25,2.0,8.14
amderma,,,,,,,,,,,
Scottsboro,34.6723,-86.0341,,100,,,US,1634951923,58.26,90.0,0.0
Zalţan,32.947,11.8665,,40,,,LY,1634951923,77.61,2.0,11.14
Cherskiy,68.75,161.3,,96,,,RU,1634951923,0.99,100.0,3.36
Mahébourg,-20.4081,57.7,,94,,,MU,1634951923,73.26,75.0,6.91
Nouakchott,18.0858,-15.9785,,52,,,MR,1634951924,76.93,100.0,13.38
Tateyama,34.9833,139.8667,,57,,,JP,1634951924,64.67,5.0,20.04
Portland,45.5234,-122.6762,,90,,,US,1634951763,56.52,75.0,7.0
Darnah,32.767,22.6367,,63,,,LY,1634951925,67.41,5.0,7.74
Mtimbira,-8.7833,36.35,,71,,,TZ,1634951925,73.15,71.0,3.4
Torbay,47.6666,-52.7314,,85,,,CA,1634951713,52.57,90.0,5.75
Owensboro,37.7742,-87.1133,,82,,,US,1634951713,53.65,75.0,0.0
Kloulklubed,7.0419,134.2556,,70,,,PW,1634951925,86.5,57.0,8.66
belushya guba,,,,,,,,,,,
Port Blair,11.6667,92.75,,89,,,IN,1634951926,78.84,75.0,2.3
Carnarvon,-24.8667,113.6333,,29,,,AU,1634951891,80.67,0.0,14.97
Hirara,24.8,125.2833,,64,,,JP,1634951926,75.47,75.0,13.8
Praia,14.9215,-23.5087,,69,,,CV,1634951926,77.54,20.0,9.22
Terney,45.0503,136.6092,,45,,,RU,1634951927,47.23,7.0,8.39
Isangel,-19.55,169.2667,,80,,,VU,1634951927,78.96,41.0,6.78
Elliot,-31.3333,27.85,,47,,,ZA,1634951927,49.14,10.0,6.8
Yangambi,0.8102,24.4336,,91,,,CD,1634951928,67.75,100.0,0.67
Half Moon Bay,37.4636,-122.4286,,82,,,US,1634951723,63.21,90.0,0.0
Grand Gaube,-20.0064,57.6608,,86,,,MU,1634951928,73.38,80.0,3.0
chagda,,,,,,,,,,,
Rome,43.2128,-75.4557,,90,,,US,1634951928,41.13,1.0,0.0
palabuhanratu,,,,,,,,,,,
barentsburg,,,,,,,,,,,
Vila Franca do Campo,37.7167,-25.4333,,84,,,PT,1634951929,70.21,93.0,6.31
Rawson,-43.3002,-65.1023,,36,,,AR,1634951929,55.65,7.0,25.21
Qaanaaq,77.484,-69.3632,,64,,,GL,1634951929,-0.62,0.0,8.3
Bira,49,132.4667,,59,,,RU,1634951930,44.22,100.0,4.92
Namatanai,-3.6667,152.4333,,64,,,PG,1634951930,85.19,94.0,9.57
Hilo,19.7297,-155.09,,78,,,US,1634951930,81.28,90.0,8.05
Lagoa,39.05,-27.9833,,85,,,PT,1634951931,68.25,55.0,13.71
Aran,40.6253,46.9756,,69,,,AZ,1634951931,47.88,0.0,2.3
Fortuna,40.5982,-124.1573,,73,,,US,1634951756,58.12,75.0,5.01
Isernia,41.6002,14.2382,,90,,,IT,1634951931,58.42,86.0,3.49
Marawi,7.9986,124.2928,,77,,,PH,1634951932,73.65,100.0,3.13
Santa Rosa,14.3122,121.1114,,63,,,PH,1634951474,87.85,97.0,11.03
rungata,,,,,,,,,,,
Yellowknife,62.456,-114.3525,,70,,,CA,1634951661,43.41,90.0,18.99
Souillac,-20.5167,57.5167,,94,,,MU,1634951932,73.36,75.0,6.91
Soyo,-6.1349,12.3689,,85,,,AO,1634951933,77.52,92.0,5.32
Naze,28.3667,129.4833,,57,,,JP,1634951933,70.72,83.0,14.16
Kaitangata,-46.2817,169.8464,,62,,,NZ,1634951933,60.35,100.0,6.22
Kavieng,-2.5744,150.7967,,67,,,PG,1634951933,84.79,11.0,13.96
Meulaboh,4.1363,96.1285,,86,,,ID,1634951934,77.32,97.0,2.13
Bavly,54.393,53.2602,,92,,,RU,1634951934,46.09,15.0,13.94
San Cristobal,7.7669,-72.225,,94,,,VE,1634951934,73.58,27.0,1.95
Okhotsk,59.3833,143.3,,74,,,RU,1634951935,21.83,31.0,14.05
Bengkulu,-3.8004,102.2655,,80,,,ID,1634951935,79.02,89.0,1.52
Belaya Gora,68.5333,146.4167,,89,,,RU,1634951935,-6.27,48.0,1.19
Saskylakh,71.9167,114.0833,,100,,,RU,1634951935,-12.68,87.0,2.77
Gornopravdinsk,60.05,69.9,,96,,,RU,1634951936,39.79,100.0,11.39
Pevek,69.7008,170.3133,,90,,,RU,1634951884,12.85,100.0,6.76
Bilma,18.6853,12.9164,,18,,,NE,1634951936,80.02,0.0,7.78
Tacoronte,28.4769,-16.4102,,82,,,ES,1634951937,69.19,90.0,8.01
Muros,42.7762,-9.0603,,90,,,ES,1634951937,58.84,2.0,6.24
Ribeira Grande,38.5167,-28.7,,84,,,PT,1634951932,69.49,10.0,9.71
Chui,-33.6971,-53.4616,,74,,,UY,1634951937,56.98,100.0,5.93
Manyana,-23.4,21.7167,,20,,,BW,1634951937,60.31,0.0,2.66
Cidreira,-30.1811,-50.2056,,87,,,BR,1634951938,65.43,1.0,9.75
Kahului,20.8947,-156.47,,69,,,US,1634951938,84.22,20.0,19.57
warqla,,,,,,,,,,,
Inhambane,-23.865,35.3833,,68,,,MZ,1634951938,71.8,0.0,12.97
Dwārka,22.2394,68.9678,,63,,,IN,1634951939,80.02,28.0,14.56
tanshui,,,,,,,,,,,
Knysna,-34.0363,23.0471,,65,,,ZA,1634951939,62.98,100.0,6.71
Aksarka,66.5606,67.7975,,97,,,RU,1634951940,25.83,99.0,6.76
Qaqortoq,60.7167,-46.0333,,98,,,GL,1634951940,37.9,100.0,2.08
Eyl,7.9803,49.8164,,80,,,SO,1634951940,76.68,9.0,3.49
bacuit,,,,,,,,,,,
Hofn,64.2539,-15.2082,,98,,,IS,1634951941,46.65,100.0,14.99
Chernyshevskiy,63.0128,112.4714,,88,,,RU,1634951941,30.88,80.0,5.84
Skjervøy,70.0311,20.9714,,60,,,NO,1634951942,34.27,100.0,4.38
Leningradskiy,69.3833,178.4167,,85,,,RU,1634951942,5.32,31.0,8.19
Gimli,50.6336,-96.9907,,70,,,CA,1634951943,42.82,100.0,9.22
Ancud,-41.8697,-73.8203,,70,,,CL,1634951791,48.42,93.0,9.91
Itaguaí,-22.8522,-43.7753,,83,,,BR,1634951943,70.59,75.0,5.75
San Patricio,28.017,-97.5169,,75,,,US,1634951943,80.69,94.0,10.63
Bambous Virieux,-20.3428,57.7575,,94,,,MU,1634951944,73.22,75.0,6.91
Vilhena,-12.7406,-60.1458,,95,,,BR,1634951944,70.0,100.0,3.27
Fairbanks,64.8378,-147.7164,,57,,,US,1634951645,46.4,20.0,5.75
Itarema,-2.9248,-39.9167,,79,,,BR,1634951944,79.97,81.0,11.92
Vardø,70.3705,31.1107,,59,,,NO,1634951945,35.29,100.0,20.69
Ballitoville,-29.539,31.2144,,88,,,ZA,1634951945,65.25,0.0,6.91
Tarnobrzeg,50.573,21.6794,,67,,,PL,1634951945,49.41,100.0,16.13
Bathsheba,13.2167,-59.5167,,69,,,BB,1634951946,83.01,20.0,24.16
Waipawa,-41.4122,175.5153,,54,,,NZ,1634951946,61.93,100.0,11.34
Broome,42.2506,-75.833,,77,,,US,1634951947,46.6,1.0,1.01
Ābu Road,24.4833,72.7833,,82,,,IN,1634951947,66.16,0.0,4.36
Saint Cloud,45.5608,-94.1625,,76,,,US,1634951832,43.21,1.0,0.0
Obihiro,42.9172,143.2044,,70,,,JP,1634951947,49.41,19.0,8.97
San Quintín,30.4833,-115.95,,81,,,MX,1634951947,64.63,5.0,18.99
Outlook,51.5001,-107.0513,,47,,,CA,1634951948,41.56,9.0,16.06
Canoa,18.355,-71.1585,,86,,,DO,1634951773,77.2,49.0,3.89
São João da Barra,-21.6403,-41.0511,,79,,,BR,1634951948,69.55,35.0,6.96
Paracatu,-17.2222,-46.8747,,75,,,BR,1634951949,71.01,11.0,2.59
Viedma,-40.8135,-62.9967,,79,,,AR,1634951949,45.27,0.0,7.94
Suleja,9.1758,7.1808,,96,,,NG,1634951949,72.59,100.0,3.4
Flinders,-34.5833,150.8552,,70,,,AU,1634951950,81.81,86.0,4.0
ngukurr,,,,,,,,,,,
Cam Ranh,11.9214,109.1591,,70,,,VN,1634951950,84.16,20.0,6.91
Coyhaique,-45.5752,-72.0662,,53,,,CL,1634951779,48.15,75.0,6.91
Orocué,4.7912,-71.3354,,82,,,CO,1634951951,77.31,19.0,5.17
Airai,-8.9266,125.4092,,43,,,TL,1634951951,77.32,62.0,1.57
Coari,-4.085,-63.1414,,78,,,BR,1634951951,77.29,28.0,2.62
Bhatkal,13.9667,74.5667,,85,,,IN,1634951951,78.62,100.0,2.01
Wenling,28.3669,121.36,,77,,,CN,1634951952,62.91,100.0,8.68
Vaitape,-16.5167,-151.75,,83,,,PF,1634951952,78.39,59.0,21.94
Veracruz,19.3333,-96.6667,,94,,,MX,1634951923,75.87,100.0,2.21
Coahuayana Viejo,18.7333,-103.6833,,90,,,MX,1634951953,83.68,100.0,3.94
Sitka,57.0531,-135.33,,66,,,US,1634951805,48.09,75.0,11.5
Chapleau,47.8405,-83.4034,,75,,,CA,1634951953,35.69,75.0,0.0
Avila,40.5833,-5,,84,,,ES,1634951953,42.66,0.0,0.51
Terrace Bay,48.7834,-87.1,,80,,,CA,1634951954,35.22,91.0,7.38
Nome,64.5011,-165.4064,,57,,,US,1634951954,39.27,90.0,19.57
Bandarbeyla,9.4942,50.8122,,82,,,SO,1634951954,76.3,21.0,3.44
Candelaria,13.9311,121.4233,,74,,,PH,1634951954,79.39,79.0,8.72
Port-Gentil,-0.7193,8.7815,,84,,,GA,1634951955,78.3,100.0,12.3
Ekuvukeni,-28.4675,30.1551,,37,,,ZA,1634951955,59.59,10.0,3.18
Lompoc,34.6391,-120.4579,,88,,,US,1634951956,70.12,90.0,9.22
samusu,,,,,,,,,,,
Nabire,-3.3667,135.4833,,91,,,ID,1634951734,76.06,100.0,2.46
Weifang,36.71,119.1019,,52,,,CN,1634951956,54.03,84.0,1.83
Lorengau,-2.0226,147.2712,,67,,,PG,1634951956,85.48,58.0,8.19
Narsaq,60.9167,-46.05,,99,,,GL,1634951957,37.62,100.0,3.94
Lerwick,60.1545,-1.1494,,64,,,GB,1634951957,41.0,100.0,5.01
George Town,5.4112,100.3354,,85,,,MY,1634951713,81.9,20.0,1.14
Petropavlovsk-Kamchatskiy,53.0452,158.6483,,65,,,RU,1634951957,37.99,75.0,2.24
Yatou,37.15,122.3833,,52,,,CN,1634951958,56.32,100.0,5.19
Pleshanovo,52.8333,53.4833,,88,,,RU,1634951958,46.18,59.0,11.39
bajo baudo,,,,,,,,,,,
Dezhou,37.4486,116.2925,,47,,,CN,1634951958,52.75,100.0,4.27
İnegöl,40.0781,29.5133,,57,,,TR,1634951959,40.28,0.0,4.32
Daru,-9.0763,143.2092,,61,,,PG,1634951959,84.83,16.0,11.34
Provideniya,64.3833,-173.3,,75,,,RU,1634951959,27.77,100.0,8.14
Port Hardy,50.6996,-127.4199,,87,,,CA,1634951714,48.38,90.0,6.91
Yantzaza,-3.8278,-78.7594,,99,,,EC,1634951960,68.11,99.0,1.14
Brandon,27.9378,-82.2859,,82,,,US,1634951960,79.32,1.0,4.0
Callaway,30.153,-85.5699,,87,,,US,1634951960,75.9,1.0,1.01
Vestmannaeyjar,63.4427,-20.2734,,97,,,IS,1634951961,48.83,100.0,10.36
Kruisfontein,-34.0033,24.7314,,68,,,ZA,1634951936,59.07,99.0,7.54
Dukat,62.55,155.55,,72,,,RU,1634951961,4.46,99.0,1.52
Barra de Tecoanapa,16.5167,-98.75,,92,,,MX,1634951961,75.16,100.0,9.17
daxian,,,,,,,,,,,
Arivonimamo,-19.0167,47.1833,,90,,,MG,1634951962,60.85,100.0,4.61
haibowan,,,,,,,,,,,
Katsuura,35.1333,140.3,,59,,,JP,1634951929,62.71,3.0,13.62
Ballina,-28.8667,153.5667,,71,,,AU,1634951962,84.38,0.0,7.14
Bone,51.9669,12.1396,,85,,,DE,1634951963,43.92,25.0,13.29
Coquimbo,-29.9533,-71.3436,,87,,,CL,1634951963,55.13,0.0,9.22
Kibala,9.1104,18.3463,,88,,,TD,1634951963,75.15,0.0,0.0
Pacific Grove,36.6177,-121.9166,,85,,,US,1634951854,63.25,75.0,1.99
Itaituba,-4.2761,-55.9836,,96,,,BR,1634951736,74.98,100.0,1.05
Hasaki,35.7333,140.8333,,57,,,JP,1634951964,63.28,1.0,15.66
Sakaiminato,35.55,133.2333,,45,,,JP,1634951964,62.58,75.0,14.97
Warren,39.4334,-84.1666,,89,,,US,1634951917,53.19,90.0,0.0
Los Llanos de Aridane,28.6585,-17.9182,,79,,,ES,1634951964,65.95,20.0,9.22
Dawson Creek,55.7666,-120.2362,,87,,,CA,1634951965,40.64,1.0,0.0
San Diego de la Unión,21.4667,-100.8667,,78,,,MX,1634951965,64.09,64.0,6.64
Cairo,30.0626,31.2497,,49,,,EG,1634951736,68.76,0.0,6.91
Avera,33.194,-82.5271,,55,,,US,1634951965,65.71,92.0,7.14
Hualmay,-11.0964,-77.6139,,83,,,PE,1634951966,63.01,37.0,10.56
Bonthe,7.5264,-12.505,,89,,,SL,1634951966,76.84,100.0,2.86
Porto Belo,-27.1578,-48.5531,,89,,,BR,1634951966,69.78,4.0,10.13
umzimvubu,,,,,,,,,,,
Sambava,-14.2667,50.1667,,93,,,MG,1634951967,72.23,15.0,4.09
Guerrero Negro,27.9769,-114.0611,,79,,,MX,1634951967,67.66,0.0,16.98
Havre-St-Pierre,50.2334,-63.5986,,93,,,CA,1634951680,46.76,90.0,13.8
Usinsk,65.9939,57.5281,,99,,,RU,1634951967,31.95,100.0,4.9
Mehamn,71.0357,27.8492,,66,,,NO,1634951968,32.65,100.0,15.35
linshu,,,,,,,,,,,
Vuktyl,63.8567,57.3094,,88,,,RU,1634951968,39.29,100.0,14.07
Mayskiy,47.6931,40.1025,,95,,,RU,1634951968,55.44,100.0,6.78
Oberwart,47.2897,16.206,,92,,,AT,1634951969,49.57,100.0,2.26
barawe,,,,,,,,,,,
Sterling,39.0062,-77.4286,,83,,,US,1634951969,61.16,90.0,3.44
Tegul'det,57.3064,88.1667,,65,,,RU,1634951969,35.83,97.0,13.35
Samarai,-10.6167,150.6667,,72,,,PG,1634951970,82.18,100.0,13.15
Mossamedes,-15.1961,12.1522,,71,,,AO,1634951970,64.38,93.0,11.54
Radchenko,56.6803,36.3718,,76,,,RU,1634951970,40.03,100.0,13.62
Dromolaxia,34.8761,33.586,,68,,,CY,1634951971,67.66,0.0,9.22
Tall Kayf,37.0833,41.0667,,25,,,TR,1634951971,64.02,0.0,5.53
Camacupa,-12.0167,17.4833,,92,,,AO,1634951971,63.27,99.0,4.16
Kalmunai,7.4167,81.8167,,84,,,LK,1634951972,78.35,27.0,5.46
Sukhobezvodnoye,57.0491,44.8891,,77,,,RU,1634951972,41.22,15.0,12.48
Itaqui,-29.1253,-56.5531,,64,,,BR,1634951821,66.97,6.0,9.48
Strezhevoy,60.7333,77.5889,,96,,,RU,1634951972,33.78,100.0,13.53
Ihosy,-22.4,46.1167,,87,,,MG,1634951973,62.55,100.0,4.76
Mandalgovi,45.7625,106.2708,,32,,,MN,1634951973,36.14,0.0,3.29
Diré,12.2833,-10.9667,,94,,,ML,1634951973,74.95,100.0,1.7
Muyezerskiy,63.9333,31.65,,92,,,RU,1634951974,29.62,100.0,16.17
tsihombe,,,,,,,,,,,
Tobe,33.7447,132.7901,,44,,,JP,1634951974,64.65,20.0,14.97
Kifrī,34.6959,44.9661,,23,,,IQ,1634951974,69.84,0.0,7.58
Mulegé,26.8833,-111.9833,,52,,,MX,1634951695,78.17,0.0,1.7
Bontang,0.1333,117.5,,83,,,ID,1634951975,78.57,100.0,9.46
Kalāleh,37.3807,55.4916,,25,,,IR,1634951975,57.63,0.0,5.64
Playas,-2.6333,-80.3833,,84,,,EC,1634951975,71.28,99.0,11.07
La Cruz,23.9167,-106.9,,81,,,MX,1634951976,78.96,0.0,6.4
Silopi,37.2497,42.4694,,29,,,TR,1634951976,62.98,0.0,3.67
Tasiilaq,65.6145,-37.6368,,91,,,GL,1634951976,35.76,100.0,9.82
Saint Paul Harbor,57.79,-152.4072,,75,,,US,1634951977,41.54,100.0,12.12
Sungai Penuh,-2.0833,101.3833,,81,,,ID,1634951977,71.4,73.0,1.25
Hauterive,46.0901,3.4459,,86,,,FR,1634951978,35.02,3.0,1.01
Sawtell,-30.3833,153.1,,73,,,AU,1634951978,87.19,2.0,17.27
Souris,49.6172,-100.2612,,83,,,CA,1634951978,37.26,92.0,9.4
Yulara,-25.2406,130.9889,,27,,,AU,1634951978,76.84,0.0,17.27
Terrace,54.5163,-128.6035,,93,,,CA,1634951713,46.31,90.0,11.5
Loíza,18.4313,-65.8802,,74,,,PR,1634951979,82.4,20.0,5.75
Manono,-7.3,27.4167,,86,,,CD,1634951979,69.39,90.0,1.14
Salta,-24.7859,-65.4117,,41,,,AR,1634951873,73.69,0.0,1.99
Bambanglipuro,-7.95,110.2833,,75,,,ID,1634951980,69.6,100.0,6.35
Matara,5.9485,80.5353,,81,,,LK,1634951980,77.77,100.0,5.39
Praia da Vitória,38.7333,-27.0667,,94,,,PT,1634951980,67.75,40.0,5.01
Lahat,-3.8,103.5333,,83,,,ID,1634951980,78.67,100.0,0.27
Richards Bay,-28.783,32.0377,,88,,,ZA,1634951981,67.26,5.0,3.85
Safi,32.2994,-9.2372,,76,,,MA,1634951981,62.35,0.0,12.68
Tecolutla,20.4833,-97.0167,,81,,,MX,1634951981,77.31,100.0,2.08
Severo-Kuril'sk,50.6789,156.125,,69,,,RU,1634951982,41.86,53.0,10.63
Mar del Plata,-38.0023,-57.5575,,89,,,AR,1634951820,56.08,90.0,1.01
Krasnosel'kup,65.7,82.4667,,95,,,RU,1634951982,28.45,100.0,16.53
Hobyo,5.3505,48.5268,,79,,,SO,1634951982,78.8,41.0,9.95
Calabozo,8.9242,-67.4293,,67,,,VE,1634951983,80.31,56.0,5.44
Stepnogorsk,52.3544,71.8869,,82,,,KZ,1634951983,40.69,100.0,27.6
Vila Velha,-20.3297,-40.2925,,88,,,BR,1634951983,69.75,20.0,0.0
Niquero,20.0431,-77.5828,,74,,,CU,1634951984,81.32,47.0,9.53
Dalvik,65.9702,-18.5286,,93,,,IS,1634951984,31.93,100.0,8.99
Mayo,38.8876,-76.5119,,86,,,US,1634951984,62.55,75.0,0.0
Asău,46.4333,26.4,,70,,,RO,1634951887,53.76,100.0,4.25
Lüderitz,-26.6481,15.1594,,87,,,NA,1634951985,55.08,0.0,7.54
Likhoy,48.1266,40.2056,,91,,,RU,1634951985,50.22,89.0,8.81
Salalah,17.0151,54.0924,,83,,,OM,1634951986,73.49,0.0,4.61
Vysokogornyy,50.1167,139.15,,74,,,RU,1634951986,32.63,100.0,5.66
toliary,,,,,,,,,,,
Soe,-9.8607,124.284,,37,,,ID,1634951986,85.89,31.0,4.18
wulanhaote,,,,,,,,,,,
Caravelas,-17.7125,-39.2481,,84,,,BR,1634951987,73.67,100.0,6.76
Tonantins,-2.8731,-67.8022,,83,,,BR,1634951987,77.72,74.0,2.71
Colquiri,-17.4167,-67.1333,,75,,,BO,1634951987,43.45,45.0,7.94
Port Macquarie,-31.4333,152.9167,,62,,,AU,1634951693,81.9,0.0,10.8
karauzyak,,,,,,,,,,,
Barranca,-10.75,-77.7667,,84,,,PE,1634951988,62.13,63.0,8.97
Lebu,-37.6167,-73.65,,65,,,CL,1634951988,50.68,61.0,17.38
Russell,32.3502,-85.1999,,88,,,US,1634951988,64.0,1.0,0.0
Kidal,18.4411,1.4078,,23,,,ML,1634951989,85.3,22.0,7.49
Grande Prairie,55.1667,-118.8027,,87,,,CA,1634951870,41.18,75.0,6.91
skalistyy,,,,,,,,,,,
Atar,20.5169,-13.0499,,21,,,MR,1634951989,77.16,100.0,5.73
Standish,43.9831,-83.9589,,57,,,US,1634951989,45.84,100.0,4.47
Adrar,20.5022,-10.0711,,22,,,MR,1634951990,73.35,95.0,8.14
Turukhansk,65.8167,87.9833,,98,,,RU,1634951990,32.94,100.0,16.44
Beibei,29.8256,106.4339,,82,,,CN,1634951990,62.37,100.0,2.39
Daura,11.5538,11.4085,,63,,,NG,1634951990,78.15,21.0,1.43
Camacha,33.0833,-16.3333,,68,,,PT,1634951991,65.62,20.0,8.05
Olafsvik,64.8945,-23.7142,,95,,,IS,1634951991,44.83,100.0,8.66
Korla,41.7597,86.1469,,27,,,CN,1634951991,54.64,100.0,9.26
Christchurch,-43.5333,172.6333,,66,,,NZ,1634951916,60.33,100.0,8.99
Port Hedland,-20.3167,118.5667,,11,,,AU,1634951959,98.65,0.0,10.36
Medicine Hat,50.0501,-110.6683,,35,,,CA,1634951992,58.19,75.0,4.61
Sandwick,60,-1.25,,81,,,GB,1634951841,40.82,90.0,1.14
Cross Lanes,38.4204,-81.7907,,90,,,US,1634951992,54.48,90.0,0.0
Weleri,-6.9713,110.0666,,74,,,ID,1634951993,82.29,100.0,3.11
Raudeberg,61.9875,5.1352,,75,,,NO,1634951993,43.47,92.0,1.99
Lethem,3.3803,-59.7968,,77,,,GY,1634951993,78.42,98.0,6.02
Khani,41.9563,42.9566,,57,,,GE,1634951994,35.17,0.0,5.32
Sulphur Springs,33.1385,-95.6011,,68,,,US,1634951994,71.94,1.0,5.75
Eydhafushi,5.1033,73.0708,,78,,,MV,1634951909,80.73,100.0,11.3
Monrovia,6.3005,-10.7969,,87,,,LR,1634951994,76.96,100.0,3.47
Tiksi,71.6872,128.8694,,99,,,RU,1634951995,3.6,100.0,2.28
Tapolca,46.8815,17.4412,,66,,,HU,1634951995,50.65,53.0,15.73
Merauke,-8.4667,140.3333,,58,,,ID,1634951995,86.79,73.0,7.23
Adelaide,-34.9333,138.6,,54,,,AU,1634951981,65.21,20.0,8.01
Waingapu,-9.6567,120.2641,,56,,,ID,1634951894,85.44,16.0,1.79
Morgan City,29.6994,-91.2068,,87,,,US,1634951996,78.8,38.0,4.59
Alyangula,-13.8483,136.4192,,63,,,AU,1634951996,87.21,6.0,11.9
Mumford,5.2618,-0.759,,88,,,GH,1634951996,77.34,82.0,8.01
Lagoa da Prata,-20.0225,-45.5436,,56,,,BR,1634951997,71.37,0.0,3.29
Rafaela,-31.2503,-61.4867,,58,,,AR,1634951997,69.01,100.0,5.01
Richmond Hill,43.8711,-79.4372,,74,,,CA,1634951960,45.09,100.0,4.59
Cristalina,-16.7686,-47.6136,,69,,,BR,1634951997,67.68,59.0,1.57
Yeppoon,-23.1333,150.7333,,55,,,AU,1634951998,87.58,5.0,8.75
Fenoarivo,-18.933,47.4354,,94,,,MG,1634951998,62.67,75.0,3.44
marv dasht,,,,,,,,,,,
Mount Isa,-20.7333,139.5,,35,,,AU,1634951998,85.77,100.0,19.57
Karratha,-20.7377,116.8463,,19,,,AU,1634951999,91.92,14.0,19.48
Pavia,45.1845,9.1615,,85,,,IT,1634951999,56.48,0.0,1.19
Puerto Escondido,15.85,-97.0667,,89,,,MX,1634951999,76.5,100.0,4.45
Eureka,40.8021,-124.1637,,73,,,US,1634952000,58.62,100.0,10.2
Odesa,46.4775,30.7326,,82,,,UA,1634952000,53.53,0.0,0.0
Verkhovazh'ye,60.7472,42.0465,,81,,,RU,1634952001,39.83,100.0,12.84
Aras,42.5617,-2.356,,87,,,ES,1634952001,46.72,40.0,4.61
Novikovo,51.1537,37.8879,,65,,,RU,1634952002,46.22,66.0,8.01
Luanda,-8.8368,13.2343,,85,,,AO,1634951989,75.24,95.0,7.9
malwan,,,,,,,,,,,
Mackay,-21.15,149.2,,67,,,AU,1634951954,88.05,5.0,13.33
Trincomalee,8.5711,81.2335,,85,,,LK,1634952003,79.27,28.0,5.84
Challapata,-18.9,-66.7667,,15,,,BO,1634952004,55.06,9.0,9.8
Houma,29.5958,-90.7195,,87,,,US,1634951796,78.8,40.0,2.28
Comodoro Rivadavia,-45.8667,-67.5,,30,,,AR,1634952004,57.06,20.0,34.52
Cliza,-17.6,-65.9333,,61,,,BO,1634952005,69.69,2.0,6.96
Homer,59.6425,-151.5483,,82,,,US,1634952005,43.81,90.0,8.05
Buala,-8.145,159.5921,,66,,,SB,1634952005,85.84,30.0,9.6
Boende,-0.2167,20.8667,,95,,,CD,1634952006,68.88,96.0,1.61
Bosconia,9.9689,-73.8836,,89,,,CO,1634952006,75.94,8.0,5.84
Byron Bay,-28.65,153.6167,,63,,,AU,1634951982,85.05,0.0,11.48
Komarikhinskiy,58.0979,57.1163,,88,,,RU,1634952007,47.39,100.0,11.95
Teguise,29.0605,-13.564,,64,,,ES,1634952007,68.22,75.0,11.5
Esperance,-33.8667,121.9,,57,,,AU,1634952007,59.07,6.0,7.11
Chitral,35.8462,71.7858,,52,,,PK,1634952007,35.01,2.0,8.5
Port Lincoln,-34.7333,135.8667,,53,,,AU,1634951713,59.72,6.0,16.42
Boa Vista,2.8197,-60.6733,,69,,,BR,1634952008,80.58,20.0,2.3
San Jose,37.3394,-121.895,,73,,,US,1634951954,63.3,75.0,1.01
el faiyum,,,,,,,,,,,
Kieta,-6.2167,155.6333,,66,,,PG,1634952008,85.55,17.0,6.91
Røros,62.5747,11.3842,,80,,,NO,1634952009,33.64,75.0,18.41
Waddān,29.1614,16.139,,32,,,LY,1634952009,72.86,65.0,10.38
Havelock,34.8791,-76.9013,,88,,,US,1634952009,75.18,90.0,1.99
Takaka,-40.85,172.8,,57,,,NZ,1634952009,58.55,100.0,5.08
yomitan,,,,,,,,,,,
Saint-François,46.4154,3.9054,,93,,,FR,1634952010,34.68,90.0,2.3
Beira,-19.8436,34.8389,,88,,,MZ,1634952010,68.09,0.0,5.75
Clyde River,70.4692,-68.5914,,75,,,CA,1634952010,21.0,100.0,6.22
Gander,48.9682,-54.5906,,81,,,CA,1634952011,50.16,90.0,11.01
solovetskiy,,,,,,,,,,,
Iralaya,15,-83.2333,,84,,,HN,1634951896,80.2,100.0,8.16
São Miguel do Araguaia,-13.275,-50.1628,,70,,,BR,1634952011,77.05,100.0,3.94
Birjand,32.8663,59.2211,,19,,,IR,1634952011,30.67,0.0,9.22
kazalinsk,,,,,,,,,,,
Shitkino,56.3703,98.3543,,93,,,RU,1634952012,38.05,100.0,10.29
Yerbogachën,61.2767,108.0108,,81,,,RU,1634952012,34.21,30.0,8.37
asayita,,,,,,,,,,,
Chāpra,25.7667,84.75,,77,,,IN,1634952013,67.98,0.0,2.68
Merke,42.8728,73.1786,,65,,,KZ,1634952013,35.15,6.0,6.33
Bujanovc,42.4592,21.7667,,76,,,RS,1634952013,56.89,64.0,1.63
Hambantota,6.1241,81.1185,,79,,,LK,1634952013,79.3,93.0,9.78
Baker City,44.7749,-117.8344,,98,,,US,1634952014,44.92,90.0,0.0
Dhidhdhoo,6.8833,73.1,,77,,,MV,1634952014,81.19,89.0,8.16
Bayir,37.2687,28.2167,,69,,,TR,1634952014,45.12,0.0,0.83
Luba,3.4568,8.5547,,83,,,GQ,1634951890,78.13,100.0,1.3
perrenjas,,,,,,,,,,,
Ituango,7.1712,-75.764,,99,,,CO,1634952015,62.87,100.0,1.5
Ebenthal,46.6081,14.3642,,70,,,AT,1634952015,53.46,75.0,1.14
Mokhsogollokh,61.4681,128.9203,,98,,,RU,1634952015,32.4,100.0,4.09
Teya,60.3778,92.6267,,80,,,RU,1634952016,32.86,96.0,14.07
Minna,9.6139,6.5569,,94,,,NG,1634952016,74.91,100.0,2.3
Puerto Madero,14.7208,-92.4215,,100,,,MX,1634952016,79.0,40.0,0.0
axixa do tocantins,,,,,,,,,,,
Jablah,35.3614,35.9256,,63,,,SY,1634952017,62.89,0.0,3.44
Severo-Yeniseyskiy,60.3725,93.0408,,84,,,RU,1634952017,29.34,93.0,14.85
Charters Towers,-20.1,146.2667,,30,,,AU,1634952017,91.71,62.0,10.71
tumannyy,,,,,,,,,,,
Labuan,5.2767,115.2417,,78,,,MY,1634952018,82.76,20.0,4.61
São Félix do Xingu,-6.6447,-51.995,,97,,,BR,1634952018,73.58,100.0,0.29
Gazli,40.1333,63.45,,43,,,UZ,1634952018,42.58,0.0,11.21
Lubao,14.9167,120.55,,75,,,PH,1634952019,88.14,100.0,8.81
eskasem,,,,,,,,,,,
Okato,-39.2,173.8833,,59,,,NZ,1634952019,64.42,100.0,10.56
Arti,56.4234,58.5328,,88,,,RU,1634952019,46.38,95.0,16.28
Pudozh,61.8099,36.5345,,96,,,RU,1634952020,39.76,100.0,7.99
Ipueiras,-7.0333,-40.45,,64,,,BR,1634952020,75.9,29.0,4.9
Lidköping,58.5052,13.1577,,58,,,SE,1634951754,45.12,46.0,17.09
Mamu Kanjan,30.8333,72.8,,48,,,PK,1634952020,72.34,0.0,9.86
Lundazi,-12.2929,33.1782,,56,,,ZM,1634952021,69.48,6.0,7.7
Polis,35.0367,32.4264,,72,,,CY,1634952021,62.42,0.0,5.37
Boone,39.0334,-92.3335,,76,,,US,1634952021,53.62,8.0,5.01
Cap-aux-Meules,47.3821,-61.8597,,94,,,CA,1634951942,59.05,40.0,6.91
Sisimiut,66.9395,-53.6735,,72,,,GL,1634952022,21.31,7.0,8.28
sataua,,,,,,,,,,,
Mil'kovo,54.7167,158.6167,,70,,,RU,1634952022,36.21,22.0,6.78
Talnakh,69.4865,88.3972,,97,,,RU,1634952022,25.3,100.0,7.83
Tokmak,47.2514,35.7058,,83,,,UA,1634952023,51.37,63.0,6.73
Frankfort,-27.2667,28.4833,,42,,,ZA,1634952023,53.11,0.0,1.81
Rocha,-34.4833,-54.3333,,84,,,UY,1634952023,58.26,100.0,4.47
Ha Tinh,18.3333,105.9,,79,,,VN,1634951884,65.12,100.0,10.31
Beyneu,45.3167,55.2,,38,,,KZ,1634952024,49.21,0.0,10.78
Ushibukamachi,32.1906,130.0228,,59,,,JP,1634952024,64.04,52.0,17.54
Sheltozero,61.3667,35.3667,,96,,,RU,1634952024,39.02,100.0,14.63
La Ronge,55.1001,-105.2842,,80,,,CA,1634952025,34.05,75.0,11.5
Tautira,-17.7333,-149.15,,86,,,PF,1634952025,73.42,83.0,30.15
Eston,51.1501,-108.7514,,45,,,CA,1634952025,48.09,100.0,21.88
Hennigsdorf,52.636,13.2042,,87,,,DE,1634952025,43.21,2.0,1.01
Celestún,20.8667,-90.4,,80,,,MX,1634952026,80.29,100.0,11.79
Lamu,-2.2717,40.902,,80,,,KE,1634952026,73.62,39.0,8.55
Pemberton,50.3164,-122.8027,,99,,,CA,1634952026,49.86,100.0,2.93
Srednekolymsk,67.45,153.6833,,91,,,RU,1634952027,-3.19,61.0,1.59
Bibbiena,43.6965,11.8135,,94,,,IT,1634952027,55.54,96.0,3.13
Nísia Floresta,-6.0911,-35.2086,,85,,,BR,1634952027,81.41,62.0,6.98
Bariri,-22.0744,-48.7403,,45,,,BR,1634952028,75.45,0.0,4.43
Merrill,45.1805,-89.6835,,85,,,US,1634952028,44.37,75.0,0.0
Kupang,-10.1667,123.5833,,66,,,ID,1634952028,86.58,75.0,5.75
Sept-Îles,50.2001,-66.3821,,97,,,CA,1634951733,48.72,90.0,4.0
Verkhoyansk,67.5447,133.385,,95,,,RU,1634952028,8.31,92.0,0.74
Barkhan,29.8977,69.5256,,25,,,PK,1634952029,59.0,0.0,4.68
nizhneyansk,,,,,,,,,,,
Pogranichnyy,44.4064,131.3769,,40,,,RU,1634952029,48.78,0.0,11.45
Ahipara,-35.1667,173.1667,,94,,,NZ,1634952029,60.42,100.0,20.27
Mayagüez,18.2011,-67.1396,,86,,,PR,1634952030,81.75,9.0,1.01
Les Cayes,18.2,-73.75,,80,,,HT,1634952030,79.86,85.0,7.05
shkotovo-26,,,,,,,,,,,
Wanning,18.8003,110.3967,,88,,,CN,1634952030,71.01,96.0,13.76
Yarmouth,41.7057,-70.2286,,89,,,US,1634952031,64.51,40.0,4.0
Loandjili,-4.7561,11.8578,,89,,,CG,1634952031,78.91,40.0,6.91
Pitimbu,-7.4706,-34.8086,,78,,,BR,1634952031,79.39,16.0,10.54
Palafrugell,41.9174,3.1631,,52,,,ES,1634951962,60.42,78.0,1.01
Ginir,7.1333,40.7,,46,,,ET,1634952032,61.05,100.0,3.06
Keti Bandar,24.1447,67.4497,,73,,,PK,1634952032,79.72,0.0,21.43
Macklin,52.3334,-109.9348,,50,,,CA,1634952032,47.53,88.0,21.36
Quatre Cocos,-20.2078,57.7625,,85,,,MU,1634952033,73.09,38.0,14.09
Totness,5.8833,-56.3167,,90,,,SR,1634952033,77.97,97.0,11.07
Nicoya,10.1483,-85.452,,92,,,CR,1634952033,74.75,59.0,1.48
Caxito,-8.5785,13.6643,,89,,,AO,1634952033,74.57,81.0,2.77
Arrondissement de Brive-la-Gaillarde,45.25,1.5,,80,,,FR,1634952034,38.28,1.0,3.38
Betong,5.7743,101.0723,,92,,,TH,1634952034,76.05,83.0,1.05
Haines Junction,60.7522,-137.5108,,87,,,CA,1634952034,37.35,100.0,3.44
West Milford,41.1312,-74.3674,,84,,,US,1634951747,60.26,100.0,7.02
Boyolangu,-8.1181,111.8935,,76,,,ID,1634952035,81.07,100.0,4.07
Yangi Marg`ilon,40.4272,71.7189,,70,,,UZ,1634952035,40.42,16.0,2.3
Benidorm,38.5382,-0.131,,75,,,ES,1634952035,63.48,94.0,12.08
Oudtshoorn,-33.5907,22.2014,,56,,,ZA,1634952036,61.16,99.0,9.46
Casper,42.8666,-106.3131,,53,,,US,1634952002,55.72,1.0,4.0
Lexington,37.9887,-84.4777,,81,,,US,1634951949,54.72,90.0,5.75
Okha,53.5739,142.9478,,80,,,RU,1634952036,39.85,100.0,16.06
Izhma,65.0083,53.9113,,99,,,RU,1634952037,32.95,100.0,6.17
Tam Ky,15.5667,108.4833,,91,,,VN,1634952037,73.38,100.0,16.49
Xapuri,-10.6517,-68.5044,,67,,,BR,1634952037,79.72,50.0,2.75
Flin Flon,54.7682,-101.865,,74,,,CA,1634952038,34.99,100.0,7.7
Baghdad,33.3406,44.4009,,58,,,IQ,1634952004,58.91,0.0,4.61
Pouembout,-21.1333,164.9,,63,,,NC,1634952038,79.86,0.0,7.52
Koróni,36.8,21.95,,75,,,GR,1634952038,65.07,0.0,8.05
Saint George,37.1041,-113.5841,,20,,,US,1634952027,73.99,1.0,1.01
gurgan,,,,,,,,,,,
Upernavik,72.7868,-56.1549,,77,,,GL,1634952039,21.18,100.0,5.79
Inta,66.0317,60.1659,,97,,,RU,1634952039,30.94,100.0,6.98
Tura,25.5198,90.2201,,80,,,IN,1634952039,66.04,0.0,3.53
Isiro,2.7739,27.616,,98,,,CD,1634952040,65.5,100.0,0.87
Kachug,53.9606,105.8817,,73,,,RU,1634952040,33.96,34.0,0.96
Sinnamary,5.3833,-52.95,,89,,,GF,1634951924,77.81,82.0,11.12
Longyearbyen,78.2186,15.6401,,79,,,SJ,1634951944,17.44,20.0,1.14
Salamiyah,35.0113,37.0532,,55,,,SY,1634952040,62.35,5.0,3.91
Kvarkeno,52.0833,59.725,,68,,,RU,1634952041,43.65,6.0,18.12
Jalu,29.0331,21.5482,,42,,,LY,1634951889,68.77,12.0,10.89
Paamiut,61.994,-49.6678,,73,,,GL,1634952041,35.2,7.0,18.14
Kaina,12.6374,8.5873,,61,,,NG,1634952041,68.68,100.0,4.07
koboldo,,,,,,,,,,,
vaitupu,,,,,,,,,,,
Awjilah,29.1081,21.2869,,42,,,LY,1634952042,69.19,10.0,10.04
Manzhouli,49.6,117.4333,,48,,,CN,1634952042,38.75,0.0,3.09
Salé,34.0389,-6.8166,,82,,,MA,1634951870,60.64,40.0,6.91
Nuuk,64.1835,-51.7216,,54,,,GL,1634951902,29.01,0.0,33.38
Chabahar,25.2919,60.643,,77,,,IR,1634952043,77.94,0.0,5.37
Harper,4.375,-7.7169,,89,,,LR,1634952043,76.64,97.0,7.43
