City,Lat,Lng,Max Temp,Humidity,Cloudiness,Wind Speed,Country,Date
Salinas,36.6777,-121.6555,54.01,81,1,3.44,US,1634999287
Necochea,-38.5473,-58.7368,61.65,56,71,10.0,AR,1634999287
Rikitea,-23.1203,-134.9692,74.41,81,41,20.94,PF,1634998954
Ushuaia,-54.8,-68.3,42.46,56,40,12.66,AR,1634998899
Chui,-33.6971,-53.4616,65.43,57,100,3.58,UY,1634999072
Chernyshevsk,52.5243,117.0174,32.49,77,1,1.3,RU,1634999287
Busselton,-33.65,115.3333,57.09,85,1,7.94,AU,1634998959
Khatanga,71.9667,102.5,15.04,94,100,16.17,RU,1634998940
Cherskiy,68.75,161.3,-7.94,100,100,1.21,RU,1634998983
Khanbari,27.3747,87.2039,65.32,93,92,1.19,NP,1634999288
Krasnyy Chikoy,50.3643,108.7512,32.88,59,10,2.13,RU,1634999288
Olafsvik,64.8945,-23.7142,45.86,90,99,12.08,IS,1634999289
Albany,42.6001,-73.9662,47.8,76,79,3.18,US,1634998746
Kaitangata,-46.2817,169.8464,49.06,93,100,4.45,NZ,1634998953
attawapiskat,0.0,0.0,0.0,0,0,0.0,,
Hobart,-42.8794,147.3294,53.02,92,75,4.0,AU,1634998939
Saint George,37.1041,-113.5841,62.35,39,1,4.61,US,1634998984
Vaini,-21.2,-175.2,68.16,94,75,9.22,TO,1634998939
Severo-Kuril'sk,50.6789,156.125,37.17,77,17,7.29,RU,1634998949
New Norfolk,-42.7826,147.0587,52.66,83,100,5.99,AU,1634998960
Malanje,-9.5402,16.341,84.7,43,97,2.21,AO,1634999289
Hermanus,-34.4187,19.2345,64.9,69,83,15.12,ZA,1634998943
Bataiporã,-22.2953,-53.2711,83.89,42,58,10.33,BR,1634999290
Richards Bay,-28.783,32.0377,83.77,54,15,11.45,ZA,1634999011
Ribeira Grande,38.5167,-28.7,73.8,60,20,11.5,PT,1634998939
Elko,41.0002,-115.5012,35.74,86,100,7.0,US,1634999290
Butaritari,3.0707,172.7902,81.82,70,99,11.54,KI,1634998976
Padang,-0.9492,100.3543,77.05,89,91,3.74,ID,1634998983
Muncar,-8.4333,114.3333,78.39,82,98,3.89,ID,1634999177
Punta Arenas,-53.15,-70.9167,41.11,70,75,46.04,CL,1634998946
Vostok,46.4856,135.8833,30.97,85,0,5.88,RU,1634998999
Nikolskoye,59.7035,30.7861,39.4,92,100,6.53,RU,1634998945
Bredasdorp,-34.5322,20.0403,57.27,60,82,18.01,ZA,1634998953
Port Lincoln,-34.7333,135.8667,54.18,77,3,12.12,AU,1634998769
Bereda,43.2686,-7.5406,67.41,51,100,4.32,ES,1634999096
Port Alfred,-33.5906,26.891,66.61,61,72,30.33,ZA,1634998989
Puerto Ayora,-0.7393,-90.3518,70.65,81,98,7.99,EC,1634998949
Souillac,-20.5167,57.5167,77.38,78,40,11.5,MU,1634998957
Jalu,29.0331,21.5482,85.91,21,0,7.25,LY,1634999068
Balsas,-7.5325,-46.0356,82.22,67,100,5.14,BR,1634999292
Egvekinot,66.3167,-179.1667,9.1,83,100,7.96,RU,1634999292
Isangel,-19.55,169.2667,75.04,87,62,10.22,VU,1634999035
Mehamn,71.0357,27.8492,33.57,72,100,13.22,NO,1634999099
Saint-Pierre,-21.3393,55.4781,78.57,78,90,5.75,RE,1634999293
Nome,64.5011,-165.4064,32.07,70,1,3.44,US,1634999081
Acurenam,1.0322,10.6488,69.73,92,100,1.12,GQ,1634999293
Fortuna,40.5982,-124.1573,54.66,69,100,1.01,US,1634998971
Pisco,-13.7,-76.2167,65.01,77,40,6.91,PE,1634999050
Camacha,33.0833,-16.3333,71.02,53,40,13.8,PT,1634999293
Chokurdakh,70.6333,147.9167,-4.38,95,100,5.17,RU,1634998951
Bluff,-46.6,168.3333,52.63,87,100,6.06,NZ,1634999005
Suntar,62.1444,117.6319,40.5,79,100,9.22,RU,1634999294
Mar del Plata,-38.0023,-57.5575,62.62,75,75,4.0,AR,1634998943
Saint-Philippe,-21.3585,55.7679,78.48,85,67,11.27,RE,1634998943
Pacora,9.0833,-79.2833,83.21,83,75,5.75,PA,1634999294
Mana,5.6592,-53.7767,81.23,86,100,6.78,GF,1634999295
Kapoeta,4.7717,33.5903,93.96,27,61,15.64,SS,1634999295
Mahanoro,-19.9,48.8,78.67,84,50,10.29,MG,1634999295
Norman Wells,65.282,-126.8329,33.84,86,20,5.75,CA,1634999079
Mataura,-46.1927,168.8643,50.97,77,100,0.94,NZ,1634998942
Ostrovnoy,68.0531,39.5131,31.17,73,100,13.22,RU,1634999088
Kalāleh,37.3807,55.4916,65.8,48,0,0.0,IR,1634999296
Nanortalik,60.1432,-45.2371,36.95,78,44,6.11,GL,1634999017
Tuatapere,-46.1333,167.6833,52.09,90,100,1.36,NZ,1634999003
saleaula,0.0,0.0,0.0,0,0,0.0,,
Santa Cecília,-26.9608,-50.4269,68.85,49,100,6.51,BR,1634999296
Ballitoville,-29.539,31.2144,83.17,78,20,6.91,ZA,1634999297
Hofn,64.2539,-15.2082,45.12,96,100,1.77,IS,1634999027
Qaanaaq,77.484,-69.3632,-1.16,60,0,8.46,GL,1634998966
Barrow,71.2906,-156.7887,28.42,86,90,13.8,US,1634998950
Gouré,13.9835,10.2704,98.02,11,22,13.29,NE,1634999297
Fairbanks,64.8378,-147.7164,34.3,88,1,0.0,US,1634998716
Sitka,57.0531,-135.33,48.09,66,90,16.11,US,1634998947
Dikson,73.5069,80.5464,10.89,87,100,13.47,RU,1634998949
bolshiye uki,0.0,0.0,0.0,0,0,0.0,,
High Rock,26.6208,-78.2833,77.02,76,100,8.63,BS,1634999298
Tomatlán,19.9333,-105.25,75.49,93,100,2.55,MX,1634999298
Mount Gambier,-37.8333,140.7667,46.24,92,7,5.5,AU,1634998972
Hilo,19.7297,-155.09,72.1,96,90,5.75,US,1634998952
Boende,-0.2167,20.8667,82.02,72,100,2.91,CD,1634999298
Pangnirtung,66.1451,-65.7125,28.4,93,90,8.05,CA,1634999120
Iqaluit,63.7506,-68.5145,26.33,86,75,1.99,CA,1634998987
Hithadhoo,-0.6,73.0833,81.91,74,99,12.28,MV,1634999008
Provideniya,64.3833,-173.3,24.58,79,100,7.81,RU,1634998991
Jamestown,42.097,-79.2353,46.02,92,90,1.01,US,1634998906
Cape Town,-33.9258,18.4232,69.1,46,75,5.01,ZA,1634998914
Cockburn Town,21.4612,-71.1419,83.3,70,25,18.7,TC,1634999299
Vardø,70.3705,31.1107,28.6,78,100,15.01,NO,1634998972
tabiauea,0.0,0.0,0.0,0,0,0.0,,
Senneterre,48.3835,-77.2328,34.02,71,54,6.98,CA,1634999300
Esso,55.9333,158.7,20.37,99,100,2.44,RU,1634999300
barentsburg,0.0,0.0,0.0,0,0,0.0,,
Hamilton,39.1834,-84.5333,53.35,91,40,1.01,US,1634998924
Matagami,49.7502,-77.6328,35.71,87,20,12.66,CA,1634999007
Augusto Corrêa,-1.0217,-46.635,88.02,61,100,6.87,BR,1634999273
Painesville,41.7245,-81.2457,48.45,91,90,4.61,US,1634999301
palabuhanratu,0.0,0.0,0.0,0,0,0.0,,
Avarua,-21.2078,-159.775,68.05,73,75,6.91,CK,1634998954
Milas,37.3164,27.7839,76.66,56,0,13.8,TR,1634999301
Morón,-34.6534,-58.6198,67.01,74,96,3.0,AR,1634999301
Garango,11.8,-0.5506,94.24,35,100,6.89,BF,1634999302
Dunedin,-45.8742,170.5036,53.8,82,100,13.0,NZ,1634999054
Mogadishu,2.0371,45.3438,84.07,89,75,11.5,SO,1634999302
Çayeli,41.0923,40.7292,63.19,67,0,0.92,TR,1634999302
amderma,0.0,0.0,0.0,0,0,0.0,,
Porto-Novo,6.4965,2.6036,77.49,86,100,4.7,BJ,1634999041
Ust-Tsilma,65.441,52.1498,27.77,89,13,7.23,RU,1634999303
xadani,0.0,0.0,0.0,0,0,0.0,,
Indian Head,38.6001,-77.1622,62.17,81,90,0.0,US,1634999303
Kulhudhuffushi,6.6221,73.07,81.36,79,100,13.38,MV,1634999304
Airai,-8.9266,125.4092,63.36,90,98,1.7,TL,1634999001
illoqqortoormiut,0.0,0.0,0.0,0,0,0.0,,
Namanyere,-7.5167,31.05,85.86,25,43,2.57,TZ,1634999304
Mathbaria,22.2876,89.9593,75.25,75,19,1.14,BD,1634999304
Yellowknife,62.456,-114.3525,40.41,84,75,18.41,CA,1634998714
Aksarka,66.5606,67.7975,30.4,96,100,7.56,RU,1634999305
Yumen,40.2833,97.2,46.18,35,59,12.5,CN,1634999305
Los Llanos de Aridane,28.6585,-17.9182,69.12,75,75,10.0,ES,1634999305
Kapaa,22.0752,-159.319,75.52,92,20,16.11,US,1634998974
Taltal,-25.4,-70.4833,60.33,67,2,7.0,CL,1634999019
Hobyo,5.3505,48.5268,81.34,71,12,12.39,SO,1634998953
Stege,54.987,12.2846,53.06,62,24,17.29,DK,1634999306
Caucayá,-0.1934,-74.7819,75.87,90,100,1.36,CO,1634999025
Kavieng,-2.5744,150.7967,83.01,75,51,16.35,PG,1634998957
Atuona,-9.8,-139.0333,77.83,75,25,17.9,PF,1634998948
Bethel,41.3712,-73.414,54.1,79,90,3.44,US,1634998961
Banda Aceh,5.5577,95.3222,80.31,80,98,3.74,ID,1634999096
burica,0.0,0.0,0.0,0,0,0.0,,
yuzhno-yeniseyskiy,0.0,0.0,0.0,0,0,0.0,,
Faanui,-16.4833,-151.75,77.16,74,85,2.51,PF,1634999016
tunxi,0.0,0.0,0.0,0,0,0.0,,
Tirschenreuth,49.8825,12.3331,50.36,63,46,1.99,DE,1634999307
La Paz,-16.5,-68.15,60.78,15,20,3.44,BO,1634999038
Batagay-Alyta,67.8006,130.4114,-3.35,98,99,3.27,RU,1634999058
Birjand,32.8663,59.2211,66.67,6,0,11.5,IR,1634999307
Manzhouli,49.6,117.4333,34.14,60,0,3.94,CN,1634999308
Lebu,-37.6167,-73.65,52.38,65,98,4.72,CL,1634998948
São Filipe,14.8961,-24.4956,81.28,64,0,7.49,CV,1634998995
Bambous Virieux,-20.3428,57.7575,77.25,78,40,11.5,MU,1634998968
Killybegs,54.6333,-8.45,55.11,90,100,26.62,IE,1634999308
Brigantine,39.4101,-74.3646,62.01,83,90,5.75,US,1634999308
Walvis Bay,-22.9575,14.5053,72.55,46,0,23.02,NA,1634999309
Russell,32.3502,-85.1999,60.08,79,1,0.0,US,1634999029
Nantucket,41.2835,-70.0995,62.71,73,40,9.22,US,1634999079
Rayong,12.8333,101.4333,80.8,99,47,3.69,TH,1634999309
Nagorsk,59.3172,50.8078,40.95,82,88,10.8,RU,1634999309
yomitan,0.0,0.0,0.0,0,0,0.0,,
Ol'ga,43.7444,135.2892,39.7,70,6,5.35,RU,1634999310
Santa Isabel Rio Negro,-0.4139,-65.0192,89.15,56,2,3.8,BR,1634999114
Torbay,47.6666,-52.7314,60.39,97,90,16.11,CA,1634998979
marcona,0.0,0.0,0.0,0,0,0.0,,
Purépero de Echáiz,19.9167,-102.0167,55.06,81,97,1.86,MX,1634999310
Te Anau,-45.4167,167.7167,50.45,93,100,0.2,NZ,1634999073
Goshāinganj,26.5833,82.3833,75.83,60,0,3.42,IN,1634999311
Mossamedes,-15.1961,12.1522,74.52,53,61,16.51,AO,1634999115
Saint Paul Harbor,57.79,-152.4072,44.11,81,90,17.27,US,1634998962
Salalah,17.0151,54.0924,80.69,74,0,9.22,OM,1634999082
Kenora,49.8167,-94.4337,39.18,93,90,5.75,CA,1634999311
Winnemucca,40.973,-117.7357,42.12,75,75,9.22,US,1634999194
Inhapi,-9.2214,-37.7486,91.98,38,63,4.63,BR,1634999312
Ilulissat,69.2167,-51.1,19.42,79,75,24.16,GL,1634998996
Dingzhou,38.5131,114.9956,42.91,59,1,2.59,CN,1634999312
Saskylakh,71.9167,114.0833,4.48,94,100,13.87,RU,1634998947
Vanavara,60.34,102.2797,32.81,73,97,11.05,RU,1634999312
Teluknaga,-6.0989,106.6381,82.58,88,20,8.99,ID,1634999313
Polyarnyye Zori,67.3661,32.4981,25.81,90,100,5.21,RU,1634999313
Atbasar,51.8,68.3333,51.76,59,31,19.01,KZ,1634999313
Laas,46.6166,10.7002,61.68,31,11,0.76,IT,1634999060
Rewa,24.5333,81.3,77.5,45,0,1.19,IN,1634999314
Coquimbo,-29.9533,-71.3436,56.93,82,90,5.75,CL,1634999314
Ankang,32.68,109.0172,53.31,79,9,1.97,CN,1634999314
Vuktyl,63.8567,57.3094,31.1,92,100,10.98,RU,1634999315
Djibouti,11.5,42.5,83.62,45,12,12.59,DJ,1634999315
Hilton Head,32.2163,-80.7526,68.11,77,0,4.0,US,1634999068
Thompson,55.7435,-97.8558,28.56,100,90,3.44,CA,1634998942
satitoa,0.0,0.0,0.0,0,0,0.0,,
Xining,36.6167,101.7667,44.98,73,9,1.52,CN,1634998967
Kirs,59.3388,52.2447,40.44,74,55,11.63,RU,1634999316
Lüderitz,-26.6481,15.1594,64.04,71,48,14.88,NA,1634998950
Santa María del Oro,25.9333,-105.3667,61.12,61,0,3.85,MX,1634999316
Alofi,-19.0595,-169.9187,67.89,73,10,8.05,NU,1634999069
Guerrero Negro,27.9769,-114.0611,64.17,85,5,12.8,MX,1634998948
Lorengau,-2.0226,147.2712,80.98,81,96,8.19,PG,1634999000
belushya guba,0.0,0.0,0.0,0,0,0.0,,
Rawson,-43.3002,-65.1023,56.7,26,3,22.08,AR,1634998832
Tuktoyaktuk,69.4541,-133.0374,28.4,93,90,17.27,CA,1634999025
Nikkō,36.75,139.6167,41.95,82,11,5.95,JP,1634999317
Delījān,33.9905,50.6838,61.92,25,0,5.59,IR,1634999317
samusu,0.0,0.0,0.0,0,0,0.0,,
La Libertad,-2.2333,-80.9,71.53,82,99,6.67,EC,1634999317
Ormara,25.2088,64.6357,86.25,25,0,20.83,PK,1634999318
Carnarvon,-24.8667,113.6333,71.67,64,0,19.57,AU,1634998944
Assiut,27.181,31.1837,87.98,30,6,19.15,EG,1634999088
Kenai,60.5544,-151.2583,40.14,90,40,5.75,US,1634999094
Grand-Lahou,5.1367,-5.0242,82.24,74,67,7.85,CI,1634999318
Tasiilaq,65.6145,-37.6368,32.16,92,100,4.34,GL,1634998969
Port Macquarie,-31.4333,152.9167,66.88,96,22,3.96,AU,1634999037
samatau,0.0,0.0,0.0,0,0,0.0,,
Bahsūma,29.2167,77.9667,73.56,60,0,7.38,IN,1634999319
Gáldar,28.147,-15.6502,73.9,64,87,12.91,ES,1634999319
Saint-François,46.4154,3.9054,57.47,63,90,9.22,FR,1634999319
Hirara,24.8,125.2833,76.3,61,71,19.06,JP,1634999320
Verāval,20.9,70.3667,79.38,65,3,9.22,IN,1634999095
Hong Kong,22.2855,114.1577,70.32,77,92,1.01,HK,1634998501
Imbituba,-28.24,-48.6703,77.83,58,0,17.76,BR,1634999320
Launceston,-41.45,147.1667,49.64,94,75,4.61,AU,1634999320
Sisimiut,66.9395,-53.6735,22.32,86,100,13.29,GL,1634998979
Bathsheba,13.2167,-59.5167,88.41,62,40,23.02,BB,1634998974
taolanaro,0.0,0.0,0.0,0,0,0.0,,
Roald,62.5833,6.1333,46.54,61,20,9.22,NO,1634999321
Asău,46.4333,26.4,62.4,44,4,9.19,RO,1634998994
ngukurr,0.0,0.0,0.0,0,0,0.0,,
Kysyl-Syr,63.8986,122.7617,29.97,98,100,5.93,RU,1634999321
Chapais,49.7834,-74.8492,31.78,71,96,4.29,CA,1634999001
Puerto Escondido,15.85,-97.0667,74.23,83,90,4.61,MX,1634999052
Acarí,-15.4311,-74.6158,70.0,58,57,7.34,PE,1634999322
Hasaki,35.7333,140.8333,45.0,52,0,16.67,JP,1634998970
Gombe,10.2897,11.1673,87.24,52,49,8.34,NG,1634999322
Ahipara,-35.1667,173.1667,61.32,98,100,5.21,NZ,1634998961
louisbourg,0.0,0.0,0.0,0,0,0.0,,
Arraial do Cabo,-22.9661,-42.0278,80.56,73,0,23.02,BR,1634999017
Manicoré,-5.8092,-61.3003,93.22,44,31,3.76,BR,1634999323
Kaduqli,11.0167,29.7167,93.25,34,63,7.29,SD,1634999323
Coaticook,45.1334,-71.7991,40.77,75,92,2.62,CA,1634999323
nizhneyansk,0.0,0.0,0.0,0,0,0.0,,
Ürümqi,43.801,87.6005,36.55,87,75,4.47,CN,1634999082
sentyabrskiy,0.0,0.0,0.0,0,0,0.0,,
Samarai,-10.6167,150.6667,80.4,83,100,13.33,PG,1634999324
Otavi,-19.65,17.3333,89.49,12,1,16.06,NA,1634999324
mys shmidta,0.0,0.0,0.0,0,0,0.0,,
Cabo San Lucas,22.8909,-109.9124,71.15,82,6,10.92,MX,1634998893
Husavik,66.0449,-17.3389,37.31,95,100,3.78,IS,1634999325
Srednekolymsk,67.45,153.6833,-12.59,99,65,3.18,RU,1634999088
Taebla,58.9547,23.7419,38.98,84,100,11.03,EE,1634999325
George Town,5.4112,100.3354,82.33,89,40,8.05,MY,1634999325
Zárate,-34.0981,-59.0286,67.03,64,100,7.18,AR,1634999325
Sakakah,29.9697,40.2064,89.17,20,4,3.87,SA,1634999326
Longyearbyen,78.2186,15.6401,19.24,79,20,0.0,SJ,1634998988
Poum,-20.2333,164.0167,74.3,80,0,16.87,NC,1634999326
Redwater,33.3582,-94.2544,70.09,76,0,6.11,US,1634999326
Vao,-22.6667,167.4833,72.16,78,89,15.41,NC,1634999327
Krasnosel'kup,65.7,82.4667,31.62,98,100,14.03,RU,1634999327
Chamba,32.5667,76.1333,61.72,79,100,1.05,IN,1634999327
Mahébourg,-20.4081,57.7,77.29,78,40,11.5,MU,1634998972
Morat,46.9283,7.1172,59.77,61,0,10.0,CH,1634999328
Leningradskiy,69.3833,178.4167,7.75,87,100,8.99,RU,1634999067
Caravelas,-17.7125,-39.2481,79.25,70,84,8.66,BR,1634999328
Bishoftu,8.75,38.9833,71.4,32,10,13.11,ET,1634999328
Cayenne,4.9333,-52.3333,87.84,75,75,4.0,GF,1634999078
Ruzsa,46.2881,19.7471,57.78,45,93,9.78,HU,1634999329
Castro,-24.7911,-50.0119,74.14,41,100,9.75,BR,1634998844
Cedar Mill,45.5248,-122.8109,52.07,93,90,1.01,US,1634999329
Mariinsk,56.2139,87.7472,37.94,81,100,21.63,RU,1634999329
Colinas,-6.0258,-44.2492,88.23,56,75,4.12,BR,1634999330
Unaí,-16.3575,-46.9061,89.67,39,6,3.04,BR,1634999330
Nabire,-3.3667,135.4833,77.0,90,93,2.35,ID,1634999330
Road Town,18.4167,-64.6167,86.2,66,40,11.5,VG,1634999065
Usinsk,65.9939,57.5281,23.52,94,100,12.41,RU,1634999070
Vila Velha,-20.3297,-40.2925,78.75,69,40,9.22,BR,1634999045
Bonavista,48.6499,-53.1147,57.2,97,100,12.06,CA,1634999331
mutsamudu,0.0,0.0,0.0,0,0,0.0,,
Baykit,61.67,96.37,33.37,88,98,9.91,RU,1634999331
Buraidah,26.326,43.975,95.45,11,0,9.42,SA,1634999173
Buenavista,8.9769,125.4089,77.04,92,100,2.91,PH,1634999332
Pochutla,15.7432,-96.4661,76.82,83,93,0.76,MX,1634999052
Apastovo,55.2029,48.5109,46.71,56,21,10.02,RU,1634999332
Lata,40.1629,-8.3327,75.49,43,100,2.28,PT,1634998978
Elizabeth City,36.2946,-76.2511,68.99,93,1,1.99,US,1634999332
Vanimo,-2.6741,141.3028,78.31,87,84,5.59,PG,1634999054
Marzuq,14.4,46.4667,82.15,16,19,15.1,YE,1634999333
Kavaratti,10.5669,72.642,82.04,75,95,3.29,IN,1634998929
Klaksvík,62.2266,-6.589,49.12,96,100,38.52,FO,1634999333
Taguatinga,-12.3857,-46.5711,92.08,39,98,4.72,BR,1634999333
China,25.7,-99.2333,74.89,82,0,6.67,MX,1634999334
St. George's,12.0564,-61.7485,85.68,70,20,17.27,GD,1634999303
Hoquiam,46.9809,-123.8893,52.93,65,90,9.22,US,1634999334
Bokaro Steel City,23.7833,85.9667,73.65,64,0,5.68,IN,1634999334
Margate,51.3813,1.3862,57.69,58,77,1.99,GB,1634998875
Guder,8.9667,37.7667,67.82,60,64,3.98,ET,1634999335
Marsá Maţrūḩ,31.3525,27.2453,75.4,57,40,10.36,EG,1634999011
Cidreira,-30.1811,-50.2056,75.6,62,39,11.9,BR,1634998985
Broome,42.2506,-75.833,47.01,81,90,1.01,US,1634999335
Okhotsk,59.3833,143.3,18.45,80,100,10.33,RU,1634999097
El Real de Santa Maria,8.109,-77.7325,80.85,86,36,0.13,PA,1634999335
Bunia,1.5667,30.25,77.95,60,89,7.0,CD,1634999114
magetan,0.0,0.0,0.0,0,0,0.0,,
Iracoubo,5.4802,-53.2011,82.08,82,100,7.25,GF,1634999112
Suoyarvi,62.0833,32.35,34.79,80,100,10.0,RU,1634999336
Port Washington,40.8257,-73.6982,57.7,67,75,1.01,US,1634999336
Kentau,43.5206,68.5094,48.99,35,15,5.08,KZ,1634999337
Ampanihy,-24.7,44.75,83.79,39,5,15.57,MG,1634999337
Sharjah city,25.3573,55.4033,88.14,60,0,9.22,AE,1634999303
Oistins,13.0667,-59.5333,87.89,62,40,23.02,BB,1634999100
Acapulco de Juárez,16.8634,-99.8901,75.02,94,90,9.22,MX,1634999337
Bengkulu,-3.8004,102.2655,77.79,87,87,3.98,ID,1634998956
San Cristobal,7.7669,-72.225,75.38,71,73,4.18,VE,1634999107
Ponta do Sol,32.6667,-17.1,74.71,69,15,5.12,PT,1634999004
Comodoro Rivadavia,-45.8667,-67.5,58.86,14,20,19.57,AR,1634999035
Marystown,47.1666,-55.1483,60.85,100,100,1.99,CA,1634999338
Belmonte,-15.8631,-38.8828,79.3,88,100,9.69,BR,1634999338
Hargeisa,9.56,44.065,76.68,41,13,16.69,SO,1634999339
Beringovskiy,63.05,179.3167,11.98,76,64,11.63,RU,1634998984
Palimbang,6.2106,124.1894,78.51,84,100,2.66,PH,1634999339
Kumluca,36.3703,30.2869,73.15,57,0,6.24,TR,1634999339
Xichang,27.8964,102.2634,56.32,86,55,3.27,CN,1634999340
Islamkot,24.6997,70.177,81.82,57,0,15.46,PK,1634999340
Sioux Lookout,50.1001,-91.917,35.67,93,90,5.75,CA,1634999107
Nishihara,26.1842,127.7558,72.68,61,75,12.66,JP,1634998962
Dukat,62.55,155.55,0.48,92,100,1.41,RU,1634999100
Itoman,26.1247,127.6694,73.42,60,75,12.66,JP,1634999340
Sungai Raya,0.7,108.9,79.83,81,100,4.83,ID,1634999341
Meulaboh,4.1363,96.1285,78.73,85,96,1.88,ID,1634998965
Cheremkhovo,53.1561,103.0675,38.01,90,100,4.56,RU,1634999342
Khovd,48.0056,91.6419,38.66,47,100,3.56,MN,1634999094
Chifeng,42.2683,118.9636,43.75,43,0,6.08,CN,1634999342
Clyde River,70.4692,-68.5914,22.28,89,94,9.08,CA,1634999033
Tiksi,71.6872,128.8694,-1.12,100,98,4.03,RU,1634999041
Ucluelet,48.9329,-125.5528,50.31,92,100,1.99,CA,1634998825
Deniliquin,-35.5333,144.9667,50.0,80,0,11.81,AU,1634999343
Laguna,38.421,-121.4238,55.92,92,1,4.61,US,1634999018
Pacific Grove,36.6177,-121.9166,53.62,89,1,1.01,US,1634999116
Muravlenko,63.7898,74.523,33.85,99,100,16.33,RU,1634999343
Farafangana,-22.8167,47.8333,76.44,80,9,10.83,MG,1634999090
Christchurch,-43.5333,172.6333,54.0,85,90,1.01,NZ,1634999147
Paamiut,61.994,-49.6678,31.17,46,12,21.12,GL,1634999344
Marawi,7.9986,124.2928,67.64,94,100,4.9,PH,1634999344
East London,-33.0153,27.9116,67.14,59,0,33.38,ZA,1634998946
Zyryanovsk,49.7386,84.2719,36.16,52,85,2.3,KZ,1634999345
grand river south east,0.0,0.0,0.0,0,0,0.0,,
Qasigiannguit,68.8193,-51.1922,19.65,94,100,5.66,GL,1634999095
Kitgum,3.2783,32.8867,81.7,51,98,3.2,UG,1634999345
Alice Springs,-23.7,133.8833,76.55,27,40,14.97,AU,1634998940
Khasan,42.4308,130.6434,48.67,49,0,7.83,RU,1634999345
Mezhdurechensk,53.6942,88.0603,37.92,70,100,4.23,RU,1634999346
Hornepayne,49.2138,-84.7705,34.47,97,100,8.52,CA,1634999346
Calama,-22.4667,-68.9333,61.29,20,0,16.11,CL,1634999047
Penzance,50.1186,-5.5371,56.08,82,75,23.02,GB,1634999346
Bismarck,46.8083,-100.7837,34.21,90,1,8.05,US,1634999106
Bereket,39.2446,55.5154,63.16,14,0,15.57,TM,1634999347
Hūn,29.1268,15.9477,94.8,12,84,15.86,LY,1634999347
Esperance,-33.8667,121.9,54.39,67,0,18.07,AU,1634998955
Bac Lieu,9.285,105.7244,80.69,80,14,8.1,VN,1634999348
Yudong,29.385,106.5194,62.49,77,2,2.24,CN,1634999348
Shizunai-furukawachō,42.3339,142.3669,44.56,70,4,10.4,JP,1634999348
São Francisco,-15.9486,-44.8644,88.39,45,25,5.7,BR,1634999348
Zhangjiakou Shi Xuanhua Qu,40.6103,115.0447,46.87,42,0,2.73,CN,1634999349
Payson,40.0444,-111.7321,55.38,69,90,13.8,US,1634999349
labutta,0.0,0.0,0.0,0,0,0.0,,
umzimvubu,0.0,0.0,0.0,0,0,0.0,,
San Patricio,28.017,-97.5169,76.84,81,100,6.49,US,1634999025
Trincomalee,8.5711,81.2335,80.98,79,8,6.51,LK,1634999349
Davila,18.4726,120.5763,80.55,81,95,18.3,PH,1634999350
Port Augusta,-32.5,137.7667,57.34,66,0,11.97,AU,1634998972
Lompoc,34.6391,-120.4579,58.37,87,1,14.0,US,1634998942
Korem,12.5058,39.5228,62.56,42,12,8.61,ET,1634999350
Port Hardy,50.6996,-127.4199,46.58,100,90,6.91,CA,1634999113
Manado,1.487,124.8455,75.97,94,40,0.0,ID,1634999351
Palembang,-2.9167,104.7458,78.69,84,77,3.44,ID,1634999351
malwan,0.0,0.0,0.0,0,0,0.0,,
Aitape,-3.1374,142.3475,78.49,86,66,5.86,PG,1634999351
Fukuechō,32.6881,128.8419,65.7,56,0,18.66,JP,1634999352
Tegul'det,57.3064,88.1667,35.44,95,100,16.62,RU,1634999352
burkhala,0.0,0.0,0.0,0,0,0.0,,
Ajdabiya,30.7554,20.2263,85.96,23,57,9.13,LY,1634999353
Chiang Klang,19.2938,100.8617,72.12,99,98,1.23,TH,1634999353
Olinda,-8.0089,-34.8553,85.73,66,40,11.5,BR,1634999008
Alice Town,25.7167,-79.3,81.07,72,70,5.01,BS,1634999353
Valparaíso,-33.0393,-71.6273,66.43,54,0,5.75,CL,1634999354
Gubkinskiy,64.434,76.5026,32.58,99,100,9.93,RU,1634999354
Chara,56.9064,118.2631,33.21,55,100,1.32,RU,1634999354
Kruisfontein,-34.0033,24.7314,66.88,51,3,28.41,ZA,1634999062
Avila,40.5833,-5.0,60.66,28,0,3.51,ES,1634999355
Manggar,-2.8833,108.2667,81.28,75,27,2.73,ID,1634999355
Yar-Sale,66.8333,70.8333,30.65,99,100,8.28,RU,1634998960
Puri,19.8,85.85,75.72,60,71,2.62,IN,1634999014
meyungs,0.0,0.0,0.0,0,0,0.0,,
Bairiki Village,1.3292,172.9752,78.8,83,20,3.44,KI,1634999355
tsihombe,0.0,0.0,0.0,0,0,0.0,,
Villa de Reyes,21.8,-100.9333,52.07,85,71,0.76,MX,1634999356
Kalakamati,-20.5929,27.3121,97.32,14,63,12.59,BW,1634999356
Westport,41.1415,-73.3579,57.88,66,90,4.0,US,1634998873
Saint Anthony,45.0205,-93.218,38.01,90,1,0.0,US,1634999356
Bainbridge Island,47.6262,-122.5212,52.29,87,90,3.0,US,1634999357
Camaná,-16.6228,-72.7111,65.57,70,51,10.04,PE,1634999357
Liverpool,53.4106,-2.9779,56.28,78,75,5.99,GB,1634999357
Cairns,-16.9167,145.7667,76.95,86,40,1.14,AU,1634999358
Chipinge,-20.1883,32.6236,90.93,24,57,9.31,ZW,1634999358
Sulangan,11.1373,123.7228,82.04,78,100,9.01,PH,1634999358
Eyl,7.9803,49.8164,80.11,70,4,12.75,SO,1634999359
Vredendal,-31.6683,18.5012,67.12,44,12,18.81,ZA,1634999359
Luanda,-8.8368,13.2343,82.4,69,20,14.97,AO,1634999359
Ust'-Ilimsk,58.0006,102.6619,34.84,73,100,8.21,RU,1634999106
Ha Giang,22.8333,104.9833,63.48,87,45,1.45,VN,1634999360
Ewo,-0.8725,14.8206,82.53,65,96,4.92,CG,1634999360
San Juan de Urabá,8.7592,-76.5297,81.37,83,62,5.59,CO,1634999360
Dingle,10.9995,122.6711,74.97,95,100,5.82,PH,1634999018
halalo,0.0,0.0,0.0,0,0,0.0,,
Constitución,-35.3333,-72.4167,56.73,55,10,11.03,CL,1634999030
mrirt,0.0,0.0,0.0,0,0,0.0,,
Shimoda,34.6667,138.95,53.1,66,92,16.04,JP,1634999361
Anadyr,64.75,177.4833,3.7,85,40,13.42,RU,1634999034
Ullapool,57.8987,-5.1604,56.75,83,100,10.87,GB,1634999361
Nioro,13.35,-15.75,87.69,38,97,3.13,GM,1634999361
Turka,49.1541,23.0297,48.25,51,24,9.69,UA,1634999362
Qaqortoq,60.7167,-46.0333,37.9,78,87,6.73,GL,1634999362
Estevan,49.1334,-102.9842,30.4,93,90,18.41,CA,1634999355
Severnoye,56.3491,78.3619,45.25,79,100,14.83,RU,1634999362
Actopan,20.2667,-98.9333,57.96,84,100,0.83,MX,1634999363
Forbes,-33.3833,148.0167,53.78,88,0,7.36,AU,1634999363
Hokitika,-42.7167,170.9667,54.77,85,100,1.39,NZ,1634999363
San Francisco,37.7749,-122.4194,57.18,91,75,1.01,US,1634999128
Ţahţā,26.7693,31.5021,87.91,25,5,18.84,EG,1634999077
Paita,-5.0892,-81.1144,70.36,81,100,10.98,PE,1634999364
Antofagasta,-23.65,-70.4,61.88,63,29,11.05,CL,1634998923
Stephenville,32.2207,-98.2023,70.56,93,90,5.75,US,1634999109
Cotonou,6.3654,2.4183,76.8,87,100,4.5,BJ,1634999308
mergui,0.0,0.0,0.0,0,0,0.0,,
Khambhāliya,22.2072,69.6683,81.66,59,65,13.35,IN,1634999364
Sawtell,-30.3833,153.1,71.19,92,0,12.66,AU,1634999365
Namie,37.4833,141.0,50.72,80,1,11.07,JP,1634999365
Santa Marta,11.2408,-74.199,85.35,66,25,7.07,CO,1634999365
Ibotirama,-12.1853,-43.2206,87.46,51,100,3.29,BR,1634999366
Florø,61.5996,5.0328,45.97,70,75,16.11,NO,1634999177
dinsor,0.0,0.0,0.0,0,0,0.0,,
Uribia,11.7139,-72.266,87.48,59,43,19.8,CO,1634999366
dzhusaly,0.0,0.0,0.0,0,0,0.0,,
Shache,38.4167,77.2406,53.37,27,100,2.86,CN,1634998979
Inhuma,-6.6683,-41.7078,90.43,41,97,3.44,BR,1634999367
Kamaishi,39.2667,141.8833,45.34,75,3,6.17,JP,1634999367
Yangi Marg`ilon,40.4272,71.7189,50.72,37,0,0.0,UZ,1634998985
utiroa,0.0,0.0,0.0,0,0,0.0,,
Tsaratanana,-16.7833,47.65,94.21,27,31,6.8,MG,1634999367
Lishu,43.3047,124.3278,43.57,53,0,7.81,CN,1634999368
Upernavik,72.7868,-56.1549,17.22,86,71,4.07,GL,1634998958
Manyana,-23.4,21.7167,87.87,6,0,16.22,BW,1634999368
Fort Nelson,58.8053,-122.7002,27.99,93,90,0.0,CA,1634998976
Tucupita,9.0622,-62.051,80.2,88,52,5.75,VE,1634999368
Tucuruí,-3.7661,-49.6725,76.73,90,100,3.36,BR,1634999369
Aklavik,68.2191,-135.0107,26.6,93,90,3.44,CA,1634998961
Muros,42.7762,-9.0603,66.99,77,100,4.65,ES,1634999025
Bandarbeyla,9.4942,50.8122,79.3,70,9,12.08,SO,1634999369
Esmeralda,21.8525,-78.1169,83.44,78,98,5.55,CU,1634999369
Bhabhua,25.05,83.6167,74.14,63,0,2.46,IN,1634999370
Santa Rosa,14.3122,121.1114,80.58,75,100,9.46,PH,1634998773
Mareeba,-17.0,145.4333,72.32,95,31,4.09,AU,1634999370
Umm Kaddadah,13.6017,26.6876,97.07,15,14,16.87,SD,1634999029
Broken Hill,-31.95,141.4333,56.91,35,0,14.97,AU,1634999370
Nenagh,52.8619,-8.1967,56.01,92,100,19.71,IE,1634999371
Tres Arroyos,-38.3739,-60.2798,64.35,43,28,11.83,AR,1634999371
Bran,45.5167,25.35,56.32,86,99,3.0,RO,1634999371
Satun,6.8333,100.0,82.11,90,100,2.55,TH,1634999372
kachikau,0.0,0.0,0.0,0,0,0.0,,
Severo-Yeniseyskiy,60.3725,93.0408,30.69,80,100,14.88,RU,1634999372
Naze,28.3667,129.4833,67.66,76,82,19.08,JP,1634999008
Aksu,41.1231,80.2644,53.28,47,100,6.67,CN,1634999372
Hay River,60.8156,-115.7999,40.98,75,75,10.36,CA,1634999373
Bukama,-9.2,25.85,96.44,29,42,4.68,CD,1634999373
Tessalit,20.1986,1.0114,99.55,11,5,5.93,ML,1634999373
Coyhaique,-45.5752,-72.0662,48.81,46,20,10.36,CL,1634999081
Ko Samui,9.5357,99.9357,82.26,78,100,10.67,TH,1634998785
Fare,-16.7,-151.0167,75.6,83,99,6.35,PF,1634999374
San Jose,37.3394,-121.895,57.07,87,75,0.0,US,1634999174
Roquetas de Mar,36.7642,-2.6148,77.0,55,5,10.49,ES,1634999374
barawe,0.0,0.0,0.0,0,0,0.0,,
Geraldton,-28.7667,114.6,64.81,82,0,9.22,AU,1634998998
Miraflores,19.2167,-98.8083,57.87,86,96,1.39,MX,1634999066
Tabory,58.5198,64.5495,45.81,67,60,13.96,RU,1634999375
Tocopilla,-22.092,-70.1979,64.76,61,4,10.09,CL,1634999375
Além Paraíba,-21.8878,-42.7044,79.27,67,52,4.79,BR,1634999375
Luganville,-15.5333,167.1667,78.04,89,92,4.61,VU,1634999376
Narsaq,60.9167,-46.05,37.62,89,100,1.74,GL,1634999072
skalistyy,0.0,0.0,0.0,0,0,0.0,,
Antri,26.0567,78.2144,75.87,54,1,3.67,IN,1634999376
kamenskoye,0.0,0.0,0.0,0,0,0.0,,
Kieta,-6.2167,155.6333,79.36,81,5,5.26,PG,1634999021
Pevek,69.7008,170.3133,12.61,95,100,5.93,RU,1634999026
Touros,-5.1989,-35.4608,88.7,55,50,13.76,BR,1634999053
Adré,13.4667,22.2,94.37,16,6,10.8,TD,1634999377
Evans,33.5337,-82.1307,62.8,69,1,1.01,US,1634999377
San Quintín,30.4833,-115.95,57.43,87,32,10.71,MX,1634999088
Kuruman,-27.4524,23.4325,70.0,16,0,21.43,ZA,1634999377
Harar,9.3094,42.1258,70.57,39,13,9.24,ET,1634999378
Sterling,39.0062,-77.4286,61.29,79,90,0.0,US,1634999378
Hailey,43.5196,-114.3153,37.26,87,90,5.75,US,1634999180
Avenal,36.0041,-120.129,53.42,79,74,2.42,US,1634999378
nguiu,0.0,0.0,0.0,0,0,0.0,,
Emba,48.8264,58.1442,52.5,69,6,8.95,KZ,1634999379
rungata,0.0,0.0,0.0,0,0,0.0,,
Rehoboth,-23.3167,17.0833,82.17,6,0,16.91,NA,1634999379
Medicina,44.4787,11.6381,67.82,64,100,0.74,IT,1634999379
Hambantota,6.1241,81.1185,81.09,74,18,15.05,LK,1634998941
Giohar,2.7809,45.5005,85.71,55,60,14.27,SO,1634999380
Poplar Bluff,36.757,-90.3929,57.61,100,90,0.0,US,1634999380
Kapit,2.0167,112.9333,73.99,99,100,0.58,MY,1634999380
Flinders,-34.5833,150.8552,65.48,88,65,10.71,AU,1634999381
Korla,41.7597,86.1469,56.59,34,100,10.54,CN,1634999381
Teya,60.3778,92.6267,33.66,83,100,14.45,RU,1634999381
Inírida,3.8653,-67.9239,85.98,66,59,2.48,CO,1634999037
Imeni Poliny Osipenko,52.4201,136.4853,26.94,96,2,4.12,RU,1634999382
Masallātah,32.6167,14.0,85.51,25,82,15.97,LY,1634999028
Tougan,13.0667,-3.0667,99.0,25,47,5.97,BF,1634999382
Itupiranga,-5.1347,-49.3267,86.32,75,96,5.57,BR,1634999382
Nelson Bay,-32.7167,152.15,68.0,94,90,1.01,AU,1634999383
dolbeau,0.0,0.0,0.0,0,0,0.0,,
Baruun-Urt,46.6806,113.2792,37.9,40,100,8.12,MN,1634999383
Alekseyevsk,57.8406,108.3492,37.72,96,100,6.44,RU,1634999383
Palmar,9.8728,-84.4553,78.76,77,71,1.36,CR,1634999384
Alghero,40.5589,8.3181,73.49,60,0,6.91,IT,1634999384
Mäntsälä,60.6609,25.2838,37.35,87,100,8.66,FI,1634999384
Peniche,39.3558,-9.3811,80.62,60,91,10.2,PT,1634998956
Pangkalanbuun,-2.6833,111.6167,75.92,94,85,0.65,ID,1634999385
San Miguel de Tucumán,-26.8241,-65.2226,77.0,47,40,16.11,AR,1634998935
Barreirinhas,-2.7469,-42.8264,91.18,48,93,12.97,BR,1634999385
Azovo,54.6997,73.0237,46.15,63,100,16.93,RU,1634999385
Ugoofaaru,5.6667,73.0,81.1,78,15,13.98,MV,1634999385
Waipawa,-41.4122,175.5153,52.43,93,76,5.39,NZ,1634999386
Praia da Vitória,38.7333,-27.0667,71.76,83,75,9.75,PT,1634998945
Maceió,-9.6658,-35.7353,90.84,62,40,11.5,BR,1634999386
Praia,14.9215,-23.5087,86.54,58,20,21.85,CV,1634999386
Arrondissement de Bergerac,44.8333,0.5,63.77,48,0,3.44,FR,1634999387
Tilichiki,60.4667,166.1,3.02,91,89,7.49,RU,1634999022
Makakilo City,21.3469,-158.0858,75.52,74,1,4.61,US,1634999196
Altay,47.8667,88.1167,29.1,67,100,4.36,CN,1634999048
Švenčionys,55.15,26.1667,44.04,73,35,11.52,LT,1634999387
Punjai Puliyampatti,11.35,77.2,78.04,82,59,1.12,IN,1634999388
Palafrugell,41.9174,3.1631,72.72,34,33,11.01,ES,1634999388
Cascais,38.6979,-9.4215,76.35,51,0,5.99,PT,1634999388
Beibei,29.8256,106.4339,62.37,73,4,2.53,CN,1634999388
Chunskiy,56.0815,99.6342,32.27,79,64,4.74,RU,1634999389
Puerto Suárez,-18.95,-57.8,95.56,46,20,18.41,BO,1634999389
Minsk,53.9,27.5667,44.35,71,100,16.15,BY,1634999106
tumannyy,0.0,0.0,0.0,0,0,0.0,,
Lamar,33.6668,-95.5836,69.37,91,90,6.91,US,1634999389
Chicama,-7.8447,-79.1469,59.54,72,85,7.92,PE,1634999390
phrai bung,0.0,0.0,0.0,0,0,0.0,,
Paraná,-31.732,-60.5238,66.54,83,100,7.47,AR,1634999390
Kokstad,-30.5472,29.4241,79.68,16,93,12.3,ZA,1634999390
Risør,58.7206,9.2342,51.3,55,67,7.74,NO,1634999391
Gazimurskiy Zavod,51.5461,118.3266,30.6,86,0,3.33,RU,1634999391
Marrakesh,31.6315,-8.0083,80.67,39,0,3.44,MA,1634998894
Sinnamary,5.3833,-52.95,82.56,81,99,8.19,GF,1634999391
sapao,0.0,0.0,0.0,0,0,0.0,,
Port-Gentil,-0.7193,8.7815,78.01,79,100,7.29,GA,1634999392
Buala,-8.145,159.5921,79.79,76,19,5.82,SB,1634999003
Kalbay,5.7233,125.4986,78.31,87,100,6.78,PH,1634999392
Manta,-0.95,-80.7333,73.18,88,90,10.36,EC,1634999043
Puerto Quijarro,-17.7833,-57.7667,99.36,35,6,10.87,BO,1634998989
Provincia di Grosseto,42.8333,11.25,71.87,68,75,4.61,IT,1634999393
Vila Franca do Campo,37.7167,-25.4333,70.21,77,50,5.77,PT,1634999033
College,64.8569,-147.8028,34.29,89,75,0.0,US,1634999393
Huilong,31.8111,121.655,63.93,58,100,7.56,CN,1634999393
Casa Nova,-9.4167,-41.1333,84.18,55,29,12.37,BR,1634999394
Nikol'sk,53.7189,46.0712,48.87,45,98,11.12,RU,1634999394
Shimanovsk,52.0,127.7,37.08,83,7,5.26,RU,1634999394
Kushiro,42.975,144.3747,39.7,81,0,5.08,JP,1634999394
Kaeo,-35.1,173.7833,61.32,98,100,12.57,NZ,1634999395
Marovoay,-16.1,46.6333,84.34,35,5,13.4,MG,1634999395
Nerchinskiy Zavod,51.3088,119.61,31.01,80,0,2.3,RU,1634999395
Vyazemskiy,47.5378,134.7525,41.09,64,0,9.22,RU,1634999396
Ancud,-41.8697,-73.8203,51.33,68,23,8.34,CL,1634998960
Taoudenni,22.6783,-3.9836,92.73,15,0,3.53,ML,1634999396
Nyimba,-14.5566,30.8149,98.96,17,88,1.45,ZM,1634999396
Nemuro,43.3236,145.575,46.26,70,68,13.29,JP,1634999397
Erenhot,43.6475,111.9767,45.95,32,47,4.9,CN,1634999397
Visby,57.6409,18.296,43.86,65,75,17.27,SE,1634999397
Biaora,23.8667,76.9167,72.75,61,8,4.79,IN,1634999397
kadykchan,0.0,0.0,0.0,0,0,0.0,,
Talnakh,69.4865,88.3972,19.9,96,100,3.36,RU,1634998970
Solnechnyy,50.7214,136.6319,33.75,86,0,3.36,RU,1634999087
Belyy Yar,53.6039,91.3903,40.89,56,0,8.95,RU,1634999398
Samaná,19.2056,-69.3369,84.42,74,20,6.91,DO,1634999398
Pumiao,22.75,108.4833,64.8,77,20,5.1,CN,1634999399
San Ramon,37.7799,-121.978,55.62,92,90,1.01,US,1634999113
Belize,17.25,-88.75,79.12,93,88,1.45,BZ,1634999399
phan rang,0.0,0.0,0.0,0,0,0.0,,
Armidale,-30.5167,151.65,53.82,58,0,6.6,AU,1634999399
Sol'-Iletsk,51.1631,54.9918,53.74,62,100,9.1,RU,1634999400
Baharly,38.4362,57.4316,63.19,16,0,13.2,TM,1634999083
Awjilah,29.1081,21.2869,86.16,21,4,7.36,LY,1634998983
Mandiana,10.6333,-8.6833,89.26,50,55,5.64,GN,1634999400
Vershino-Darasunskiy,52.35,115.5167,26.4,79,0,3.09,RU,1634999401
Ekibastuz,51.6667,75.3667,50.94,55,100,22.55,KZ,1634999401
Chato,-2.6378,31.7669,77.56,59,84,7.27,TZ,1634999402
Izhma,65.0083,53.9113,28.06,89,43,8.55,RU,1634999403
Santa Cruz de la Sierra,-17.8,-63.1667,87.26,69,75,27.63,BO,1634999404
Camas,37.402,-6.0331,78.42,44,0,3.0,ES,1634999404
Ponta Delgada,37.7333,-25.6667,70.52,78,20,5.75,PT,1634998976
Oktyabr'skoye,43.0645,44.7417,60.35,51,0,6.71,RU,1634999052
Saldanha,-33.0117,17.9442,68.05,66,5,14.54,ZA,1634999015
Yerbogachën,61.2767,108.0108,34.92,75,100,11.54,RU,1634999405
Sarakhs,36.5449,61.1577,62.74,27,0,0.0,IR,1634999406
Lewisporte,49.2499,-55.0482,53.31,97,100,3.71,CA,1634999407
Billings Metropolitan Area,45.7833,-108.5007,54.93,71,75,5.75,US,1634999407
Labuhan,-6.8844,112.2051,81.61,75,100,5.53,ID,1634999054
Huntington,38.4193,-82.4452,57.38,80,75,11.5,US,1634999223
Tyazhinskiy,56.116,88.524,38.16,78,100,23.71,RU,1634999408
katha,0.0,0.0,0.0,0,0,0.0,,
Rāwah,34.4816,41.9093,79.05,21,76,6.82,IQ,1634999409
Choya,52.0108,86.5467,44.53,39,100,5.3,RU,1634999410
North Bend,43.4065,-124.2243,53.85,93,75,8.05,US,1634999410
Andenes,69.3143,16.1194,31.98,64,75,8.05,NO,1634999117
Pimenta Bueno,-11.6725,-61.1936,95.59,39,76,7.49,BR,1634999411
Kirakira,-10.4544,161.9205,78.64,86,24,6.78,SB,1634999412
Domingos Martins,-20.3633,-40.6592,72.41,66,69,5.17,BR,1634999413
potgietersrus,0.0,0.0,0.0,0,0,0.0,,
Kismayo,-0.3582,42.5454,79.23,73,15,11.05,SO,1634999413
vaitupu,0.0,0.0,0.0,0,0,0.0,,
Khartoum,15.5518,32.5324,102.02,18,27,1.01,SD,1634999155
Port Elizabeth,-33.918,25.5701,69.1,49,0,34.52,ZA,1634998963
Mangaldai,26.4333,92.0333,75.11,78,0,1.03,IN,1634999414
Gushikawa,26.3544,127.8686,72.63,68,90,5.75,JP,1634999415
vreed en hoop,0.0,0.0,0.0,0,0,0.0,,
Conakry,9.538,-13.6773,88.36,76,71,8.97,GN,1634999208
Oussouye,12.485,-16.5469,93.38,35,100,9.22,SN,1634999416
Lavrentiya,65.5833,-171.0,26.01,84,100,9.95,RU,1634999027
Avera,33.194,-82.5271,62.47,65,0,6.67,US,1634998975
Niimi,34.9833,133.4667,51.15,83,8,2.93,JP,1634999416
Mariestad,58.7097,13.8237,49.37,63,13,2.28,SE,1634999417
Quang Ngai,15.1167,108.8,73.13,96,100,4.79,VN,1634999137
Bocaiúva,-17.1078,-43.815,82.11,41,23,2.17,BR,1634999417
