City,Lat,Lng,Max Temp,Humidity,Cloudiness,Wind Speed,Country,Date,Max_Temp,Cloudiness ,Wind_Speed
Hilo,19.7297,-155.09,0,91,0,0,US,1634954331,75.4,90.0,11.5
taolanaro,0.0,0.0,0,0,0,0,,,,,
Butaritari,3.0707,172.7902,0,78,0,0,KI,1634954511,82.27,77.0,18.57
Qasigiannguit,68.8193,-51.1922,0,75,0,0,GL,1634954633,19.65,55.0,7.18
barentsburg,0.0,0.0,0,0,0,0,,,,,
Punta Arenas,-53.15,-70.9167,0,81,0,0,CL,1634954391,39.31,75.0,35.68
Ushuaia,-54.8,-68.3,0,75,0,0,AR,1634954254,40.66,75.0,12.66
Faanui,-16.4833,-151.75,0,83,0,0,PF,1634954498,78.33,77.0,19.51
Narsaq,60.9167,-46.05,0,99,0,0,GL,1634954525,37.62,100.0,2.39
Hobart,-42.8794,147.3294,0,91,0,0,AU,1634954270,56.01,75.0,9.22
ruatoria,0.0,0.0,0,0,0,0,,,,,
Meadow Lake,34.8014,-106.5436,0,27,0,0,US,1634954633,66.47,94.0,5.79
Tirat Carmel,32.7617,34.9719,0,57,0,0,IL,1634954634,71.62,0.0,12.5
Mahajanga,-15.7167,46.3167,0,88,0,0,MG,1634954634,68.02,20.0,2.3
Yamethin,20.4333,96.15,0,86,0,0,MM,1634954634,77.43,100.0,3.13
Castro,-24.7911,-50.0119,0,81,0,0,BR,1634954466,55.31,0.0,3.78
Hithadhoo,-0.6,73.0833,0,73,0,0,MV,1634954493,82.18,100.0,11.77
Kapaa,22.0752,-159.319,0,85,0,0,US,1634954476,84.18,12.0,1.01
Tasiilaq,65.6145,-37.6368,0,92,0,0,GL,1634954360,28.31,100.0,11.36
Grindavik,63.8424,-22.4338,0,100,0,0,IS,1634954635,47.89,90.0,16.11
Avarua,-21.2078,-159.775,0,64,0,0,CK,1634954422,73.45,20.0,5.75
George Town,5.4112,100.3354,0,83,0,0,MY,1634954205,84.13,20.0,1.99
Harper,4.375,-7.7169,0,89,0,0,LR,1634954635,76.5,81.0,7.34
Beringovskiy,63.05,179.3167,0,80,0,0,RU,1634954636,17.4,100.0,14.25
Khatanga,71.9667,102.5,0,94,0,0,RU,1634954414,1.99,98.0,11.23
Dunedin,-45.8742,170.5036,0,66,0,0,NZ,1634954381,56.8,90.0,13.0
Kirakira,-10.4544,161.9205,0,59,0,0,SB,1634954636,86.22,6.0,8.23
Tuktoyaktuk,69.4541,-133.0374,0,90,0,0,CA,1634954490,33.46,100.0,15.23
Vaini,-21.2,-175.2,0,65,0,0,TO,1634954477,72.93,98.0,18.41
Barrow,71.2906,-156.7887,0,86,0,0,US,1634954483,30.22,90.0,6.91
Jamestown,42.097,-79.2353,0,88,0,0,US,1634954214,47.52,100.0,1.01
Los Llanos de Aridane,28.6585,-17.9182,0,81,0,0,ES,1634954637,65.95,20.0,16.11
Atuona,-9.8,-139.0333,0,79,0,0,PF,1634954430,77.88,23.0,17.2
Aasiaat,68.7098,-52.8699,0,96,0,0,GL,1634954637,16.41,100.0,11.77
Laguna,38.421,-121.4238,0,73,0,0,US,1634954638,63.18,1.0,1.01
Zakopane,49.299,19.9489,0,74,0,0,PL,1634954407,38.98,99.0,7.0
Hasaki,35.7333,140.8333,0,56,0,0,JP,1634954549,59.4,1.0,15.43
saleaula,0.0,0.0,0,0,0,0,,,,,
Rikitea,-23.1203,-134.9692,0,83,0,0,PF,1634954479,74.07,9.0,19.66
Lata,40.1629,-8.3327,0,69,0,0,PT,1634954264,57.81,0.0,3.87
Tessalit,20.1986,1.0114,0,23,0,0,ML,1634954638,79.12,5.0,8.19
Wenzhou,27.9994,120.6668,0,82,0,0,CN,1634954639,57.65,100.0,4.41
San Patricio,28.017,-97.5169,0,77,0,0,US,1634954255,80.69,96.0,9.95
Lufilufi,-13.8745,-171.5986,0,74,0,0,WS,1634954562,79.43,74.0,20.02
Leningradskiy,69.3833,178.4167,0,85,0,0,RU,1634954332,4.73,44.0,8.63
Puerto Ayora,-0.7393,-90.3518,0,86,0,0,EC,1634954378,69.89,20.0,8.21
samusu,0.0,0.0,0,0,0,0,,,,,
Upernavik,72.7868,-56.1549,0,82,0,0,GL,1634954491,21.15,100.0,5.7
Tuatapere,-46.1333,167.6833,0,52,0,0,NZ,1634954639,66.18,93.0,5.46
Provideniya,64.3833,-173.3,0,75,0,0,RU,1634954473,27.52,100.0,8.19
Souillac,-20.5167,57.5167,0,85,0,0,MU,1634954468,73.36,36.0,11.9
Dorsten,51.6667,6.9667,0,95,0,0,DE,1634954640,48.16,78.0,7.0
Bambous Virieux,-20.3428,57.7575,0,94,0,0,MU,1634954383,73.22,75.0,6.91
Mataura,-46.1927,168.8643,0,39,0,0,NZ,1634954212,72.32,99.0,1.28
Nikolskoye,59.7035,30.7861,0,80,0,0,RU,1634954479,44.87,100.0,12.33
Lashio,22.9333,97.75,0,95,0,0,MM,1634954517,67.6,97.0,0.69
Abu Dhabi,24.4667,54.3667,0,62,0,0,AE,1634954510,84.97,0.0,7.99
Ameca,20.55,-104.0333,0,67,0,0,MX,1634954641,71.04,90.0,2.77
Chui,-33.6971,-53.4616,0,71,0,0,UY,1634954641,57.79,100.0,5.17
Port Hardy,50.6996,-127.4199,0,87,0,0,CA,1634954641,48.38,90.0,9.22
Bredasdorp,-34.5322,20.0403,0,79,0,0,ZA,1634954492,58.28,100.0,19.48
Torbay,47.6666,-52.7314,0,86,0,0,CA,1634954408,52.57,100.0,1.01
Paredon,16.0333,-93.8667,0,80,0,0,MX,1634954642,79.56,100.0,2.06
Oberá,-27.4871,-55.1199,0,67,0,0,AR,1634954642,62.6,8.0,2.3
Balingasay,16.3573,119.8564,0,75,0,0,PH,1634954643,82.74,29.0,7.47
Yellowknife,62.456,-114.3525,0,76,0,0,CA,1634954219,42.42,20.0,20.71
College,64.8569,-147.8028,0,88,0,0,US,1634954643,32.47,100.0,2.8
belushya guba,0.0,0.0,0,0,0,0,,,,,
Busselton,-33.65,115.3333,0,55,0,0,AU,1634954286,63.63,0.0,4.85
Batagay-Alyta,67.8006,130.4114,0,93,0,0,RU,1634954468,8.47,100.0,0.92
Hofn,64.2539,-15.2082,0,98,0,0,IS,1634954563,46.98,100.0,16.37
Kununurra,-15.7667,128.7333,0,46,0,0,AU,1634954435,94.98,6.0,9.22
Japura,-0.3167,102.35,0,84,0,0,ID,1634954644,81.9,52.0,1.59
Vila,42.0304,-8.1588,0,92,0,0,PT,1634954644,48.33,1.0,3.74
Saint Paul Harbor,57.79,-152.4072,0,76,0,0,US,1634954436,41.18,100.0,12.37
Ongandjera,-17.8833,15.0667,0,28,0,0,NA,1634954644,60.67,8.0,8.12
Half Moon Bay,37.4636,-122.4286,0,84,0,0,US,1634954473,61.11,90.0,0.0
Taoudenni,22.6783,-3.9836,0,28,0,0,ML,1634954645,77.29,0.0,6.55
Batavia,41.85,-88.3126,0,70,0,0,US,1634954414,51.48,98.0,1.01
Omboué,-1.5746,9.2618,0,87,0,0,GA,1634954313,76.64,100.0,6.69
grand river south east,0.0,0.0,0,0,0,0,,,,,
Isangel,-19.55,169.2667,0,70,0,0,VU,1634954645,84.31,20.0,11.5
tsihombe,0.0,0.0,0,0,0,0,,,,,
Thompson,55.7435,-97.8558,0,86,0,0,CA,1634954235,30.36,75.0,3.44
Cape Town,-33.9258,18.4232,0,88,0,0,ZA,1634954325,58.08,75.0,7.0
Mount Isa,-20.7333,139.5,0,27,0,0,AU,1634954646,89.37,97.0,16.11
Kemijärvi,66.7131,27.4306,0,91,0,0,FI,1634954646,23.11,90.0,7.85
Ahipara,-35.1667,173.1667,0,94,0,0,NZ,1634954500,60.71,100.0,19.77
Severo-Kuril'sk,50.6789,156.125,0,72,0,0,RU,1634954647,42.04,39.0,13.18
Harrison,30.4091,-89.0436,0,94,0,0,US,1634954647,73.47,1.0,0.0
Santa Marta de Tormes,40.9506,-5.6272,0,65,0,0,ES,1634954647,48.85,0.0,3.44
East London,-33.0153,27.9116,0,74,0,0,ZA,1634954433,62.4,49.0,6.8
Albany,42.6001,-73.9662,0,82,0,0,US,1634954442,47.48,48.0,5.23
Sovetskiy,61.3614,63.5842,0,93,0,0,RU,1634954530,41.59,100.0,10.47
umzimvubu,0.0,0.0,0,0,0,0,,,,,
Yaan,7.3833,8.5667,0,98,0,0,NG,1634954648,71.64,100.0,4.5
Portland,45.5234,-122.6762,0,91,0,0,US,1634954144,55.51,86.0,1.99
Roy,41.1616,-112.0263,0,35,0,0,US,1634954648,64.8,1.0,4.61
Caravelas,-17.7125,-39.2481,0,85,0,0,BR,1634954545,73.56,97.0,6.11
São Filipe,14.8961,-24.4956,0,65,0,0,CV,1634954649,80.47,0.0,4.16
Kastornoye,51.8334,38.1302,0,65,0,0,RU,1634954649,44.24,10.0,11.12
Fort Frances,48.5999,-93.4003,0,72,0,0,CA,1634954415,39.42,90.0,5.75
Bull Savanna,17.8868,-77.5902,0,86,0,0,JM,1634954649,76.98,91.0,8.16
Saint-Pierre,-21.3393,55.4781,0,77,0,0,RE,1634954650,73.04,20.0,4.61
Kohlu,29.8962,69.252,0,26,0,0,PK,1634954650,58.23,0.0,5.19
Argentan,48.75,-0.0167,0,61,0,0,FR,1634954514,48.92,100.0,3.62
Okhotsk,59.3833,143.3,0,72,0,0,RU,1634954650,23.18,26.0,14.0
Tūkrah,32.5341,20.5791,0,51,0,0,LY,1634954519,70.16,67.0,8.25
Kurtamysh,54.9103,64.4319,0,81,0,0,RU,1634954651,44.94,79.0,16.37
Tromsø,69.6496,18.957,0,74,0,0,NO,1634954651,29.37,20.0,1.14
Geraldton,-28.7667,114.6,0,33,0,0,AU,1634954651,77.13,0.0,11.5
Pervomayskiy,53.2485,40.2871,0,71,0,0,RU,1634954545,37.13,3.0,12.28
Ilulissat,69.2167,-51.1,0,58,0,0,GL,1634954505,19.42,98.0,11.5
Naze,28.3667,129.4833,0,56,0,0,JP,1634954555,68.49,89.0,14.94
Hermanus,-34.4187,19.2345,0,88,0,0,ZA,1634954482,58.8,100.0,23.55
cumaribo,0.0,0.0,0,0,0,0,,,,,
Adrar,20.5022,-10.0711,0,22,0,0,MR,1634954652,72.23,81.0,7.94
Mar del Plata,-38.0023,-57.5575,0,89,0,0,AR,1634954210,56.08,90.0,5.75
Saint-Philippe,-21.3585,55.7679,0,82,0,0,RE,1634954371,72.95,35.0,7.54
Flinders,-34.5833,150.8552,0,71,0,0,AU,1634954562,83.21,50.0,5.99
Vaitape,-16.5167,-151.75,0,83,0,0,PF,1634954499,78.33,73.0,19.19
Seoul,37.5683,126.9778,0,41,0,0,KR,1634954532,56.64,0.0,3.38
Bengkulu,-3.8004,102.2655,0,73,0,0,ID,1634954260,81.66,95.0,0.6
Nairobi,-1.2833,36.8167,0,79,0,0,KE,1634954463,61.97,80.0,7.11
Noyabrsk,63.1994,75.4507,0,93,0,0,RU,1634954653,31.96,100.0,17.74
Carnarvon,-24.8667,113.6333,0,38,0,0,AU,1634954653,79.45,0.0,15.17
Arraial do Cabo,-22.9661,-42.0278,0,79,0,0,BR,1634954512,68.65,1.0,12.82
Fort Nelson,58.8053,-122.7002,0,79,0,0,CA,1634954654,41.65,100.0,4.07
Jiaozuo,35.2397,113.2331,0,50,0,0,CN,1634954654,57.18,99.0,7.43
Kahului,20.8947,-156.47,0,78,0,0,US,1634954352,81.66,23.0,17.0
Ponta do Sol,32.6667,-17.1,0,66,0,0,PT,1634954502,68.72,34.0,7.74
Cooma,-36.2333,149.1333,0,41,0,0,AU,1634954654,71.56,100.0,11.79
Qaanaaq,77.484,-69.3632,0,65,0,0,GL,1634954655,-0.85,0.0,8.3
Dikson,73.5069,80.5464,0,88,0,0,RU,1634954289,13.87,100.0,17.9
Ilhabela,-23.7781,-45.3581,0,87,0,0,BR,1634954655,67.06,42.0,8.37
Prata,-19.3072,-48.9242,0,47,0,0,BR,1634954655,71.06,0.0,4.5
Port Alfred,-33.5906,26.891,0,84,0,0,ZA,1634954484,61.32,3.0,9.8
Mount Gambier,-37.8333,140.7667,0,74,0,0,AU,1634954485,57.36,15.0,8.48
Paragould,36.0584,-90.4973,0,57,0,0,US,1634954656,57.74,0.0,5.55
Kirksville,40.1948,-92.5833,0,78,0,0,US,1634954656,48.06,1.0,4.61
Esperance,-33.8667,121.9,0,54,0,0,AU,1634954492,60.76,9.0,9.62
meyungs,0.0,0.0,0,0,0,0,,,,,
Sept-Îles,50.2001,-66.3821,0,97,0,0,CA,1634954656,48.72,90.0,1.99
Fare,-16.7,-151.0167,0,88,0,0,PF,1634954657,77.31,100.0,20.98
Mahébourg,-20.4081,57.7,0,94,0,0,MU,1634954369,73.26,75.0,6.91
Ribeira Grande,38.5167,-28.7,0,87,0,0,PT,1634954542,68.76,13.0,10.33
Saskylakh,71.9167,114.0833,0,100,0,0,RU,1634954436,-13.47,87.0,3.06
Abu Samrah,35.3029,37.1841,0,48,0,0,SY,1634954657,62.71,0.0,1.86
Perivoli,39.4206,20.0147,0,80,0,0,GR,1634954658,67.55,94.0,8.61
Dongsheng,39.8161,109.9776,0,49,0,0,CN,1634954430,43.41,9.0,14.54
Avera,33.194,-82.5271,0,61,0,0,US,1634954658,63.72,73.0,7.23
Skibbereen,51.55,-9.2667,0,81,0,0,IE,1634954658,51.6,100.0,17.78
Lucea,18.451,-78.1736,0,75,0,0,JM,1634954659,78.85,43.0,2.48
Shaunavon,49.6501,-108.4181,0,48,0,0,CA,1634954659,44.38,63.0,18.41
Hambantota,6.1241,81.1185,0,100,0,0,LK,1634954659,75.54,20.0,4.61
Puerto Quijarro,-17.7833,-57.7667,0,59,0,0,BO,1634954555,82.89,0.0,3.53
Bubaque,11.2833,-15.8333,0,76,0,0,GW,1634954549,82.76,67.0,11.39
General Roca,-39.0333,-67.5833,0,20,0,0,AR,1634954660,59.63,1.0,10.04
Kendallville,41.4414,-85.265,0,87,0,0,US,1634954660,48.49,90.0,4.61
Menongue,-14.6585,17.691,0,73,0,0,AO,1634954529,65.44,16.0,4.76
Garissa,-0.4536,39.6401,0,77,0,0,KE,1634954426,74.43,48.0,11.03
Ancud,-41.8697,-73.8203,0,77,0,0,CL,1634954483,47.43,96.0,9.4
Kangaatsiaq,68.3065,-53.4641,0,92,0,0,GL,1634954660,27.21,96.0,11.7
Hualmay,-11.0964,-77.6139,0,84,0,0,PE,1634954661,62.69,39.0,9.01
Luba,3.4568,8.5547,0,82,0,0,GQ,1634954661,78.19,100.0,1.14
Lovozero,68.005,35.0117,0,85,0,0,RU,1634954662,21.47,98.0,7.4
Aklavik,68.2191,-135.0107,0,94,0,0,CA,1634954662,30.92,100.0,15.41
Lebu,-37.6167,-73.65,0,66,0,0,CL,1634954406,50.67,63.0,16.55
tumannyy,0.0,0.0,0,0,0,0,,,,,
Cayenne,4.9333,-52.3333,0,88,0,0,GF,1634954407,78.1,90.0,1.14
Chicama,-7.8447,-79.1469,0,84,0,0,PE,1634954662,65.44,97.0,5.91
Los Andes,-32.8337,-70.5983,0,74,0,0,CL,1634954454,55.58,0.0,1.43
Kanigoro,-8.13,112.219,0,62,0,0,ID,1634954663,84.83,100.0,5.46
Görele,41.0308,39.0031,0,53,0,0,TR,1634954663,58.44,0.0,5.35
Gouré,13.9835,10.2704,0,51,0,0,NE,1634954663,87.03,100.0,4.5
Tianpeng,30.9866,103.9393,0,83,0,0,CN,1634954664,54.52,100.0,0.43
Hamilton,39.1834,-84.5333,0,96,0,0,US,1634954430,53.58,90.0,1.01
tasbuget,0.0,0.0,0,0,0,0,,,,,
Te Anau,-45.4167,167.7167,0,48,0,0,NZ,1634954566,63.75,99.0,2.82
Charlestown,-32.95,151.6667,0,60,0,0,AU,1634954542,93.22,3.0,5.01
Helong,42.5397,128.9972,0,35,0,0,CN,1634954664,50.47,0.0,4.14
Karratha,-20.7377,116.8463,0,18,0,0,AU,1634954665,94.37,9.0,18.9
New Norfolk,-42.7826,147.0587,0,83,0,0,AU,1634954435,55.65,100.0,2.24
Hong Kong,22.2855,114.1577,0,77,0,0,HK,1634954421,70.25,80.0,1.01
Americus,32.0724,-84.2327,0,64,0,0,US,1634954642,68.13,11.0,0.0
Cherskiy,68.75,161.3,0,96,0,0,RU,1634954407,1.11,100.0,3.15
Katsuura,35.1333,140.3,0,51,0,0,JP,1634954481,62.71,3.0,15.82
Channel-Port aux Basques,47.5702,-59.1367,0,98,0,0,CA,1634954414,55.24,99.0,8.95
Jega,12.2175,4.3792,0,70,0,0,NG,1634954666,79.36,78.0,7.58
Port Elizabeth,-33.918,25.5701,0,82,0,0,ZA,1634954439,65.1,33.0,7.27
Manadhoo,5.7667,73.3833,0,77,0,0,MV,1634954530,81.54,100.0,12.8
wahran,0.0,0.0,0,0,0,0,,,,,
Berlevåg,70.8578,29.0864,0,63,0,0,NO,1634954514,33.78,100.0,18.97
Saldanha,-33.0117,17.9442,0,82,0,0,ZA,1634954292,58.46,100.0,22.19
Tual,-5.6667,132.75,0,71,0,0,ID,1634954520,83.62,49.0,8.32
Bathsheba,13.2167,-59.5167,0,66,0,0,BB,1634954513,82.2,100.0,20.4
Departamento de Maldonado,-34.6667,-54.9167,0,98,0,0,UY,1634954484,58.39,100.0,8.5
Shwebo,22.5667,95.7,0,88,0,0,MM,1634954667,76.01,100.0,1.1
Ambovombe,-25.1667,46.0833,0,85,0,0,MG,1634954667,66.25,100.0,11.36
Kavaratti,10.5669,72.642,0,75,0,0,IN,1634954470,81.82,37.0,4.12
Teahupoo,-17.8333,-149.2667,0,86,0,0,PF,1634954667,67.96,80.0,31.74
Ailigandí,9.2333,-78.0167,0,85,0,0,PA,1634954668,78.94,23.0,4.16
Pevek,69.7008,170.3133,0,91,0,0,RU,1634954485,12.9,100.0,7.02
illoqqortoormiut,0.0,0.0,0,0,0,0,,,,,
Chadan,51.2833,91.5833,0,56,0,0,RU,1634954668,37.36,100.0,3.78
Alice Springs,-23.7,133.8833,0,24,0,0,AU,1634954530,80.15,0.0,17.27
amderma,0.0,0.0,0,0,0,0,,,,,
Ţahţā,26.7693,31.5021,0,59,0,0,EG,1634954669,67.46,0.0,9.75
Usvyaty,55.7456,30.7533,0,93,0,0,RU,1634954669,40.8,100.0,12.24
Airai,-8.9266,125.4092,0,40,0,0,TL,1634954283,79.79,60.0,1.68
Namatanai,-3.6667,152.4333,0,66,0,0,PG,1634954517,84.81,89.0,9.82
Concepción del Uruguay,-32.4825,-58.2372,0,63,0,0,AR,1634954669,67.98,94.0,4.0
Krasnosel'kup,65.7,82.4667,0,95,0,0,RU,1634954529,28.74,98.0,17.43
Vao,-22.6667,167.4833,0,78,0,0,NC,1634954670,73.24,0.0,5.48
Baculin,7.4525,126.5842,0,68,0,0,PH,1634954670,85.66,100.0,8.52
Havre-St-Pierre,50.2334,-63.5986,0,100,0,0,CA,1634954433,46.76,90.0,14.97
Kaitangata,-46.2817,169.8464,0,61,0,0,NZ,1634954253,60.67,99.0,6.4
Erenhot,43.6475,111.9767,0,32,0,0,CN,1634954488,42.67,12.0,4.61
Polovinnoye,54.7914,65.9864,0,77,0,0,RU,1634954671,44.2,95.0,18.03
Jinchang,38.4953,102.1739,0,51,0,0,CN,1634954671,48.58,100.0,2.8
Klaksvík,62.2266,-6.589,0,79,0,0,FO,1634954671,45.52,100.0,26.51
Altyn-Topkan,40.6528,69.5998,0,61,0,0,TJ,1634954671,30.67,2.0,6.22
Sur,22.5667,59.5289,0,63,0,0,OM,1634954646,80.53,0.0,4.63
Bluff,-46.6,168.3333,0,67,0,0,NZ,1634954226,56.8,100.0,11.25
Araouane,18.9048,-3.5265,0,22,0,0,ML,1634954672,78.3,3.0,7.47
Casale Monferrato,45.1334,8.4571,0,90,0,0,IT,1634954672,55.56,0.0,4.36
Coyhaique,-45.5752,-72.0662,0,96,0,0,CL,1634954480,38.75,89.0,11.77
Vuktyl,63.8567,57.3094,0,86,0,0,RU,1634954673,37.96,100.0,13.65
Berezovyy,51.6667,135.7,0,66,0,0,RU,1634954673,44.74,78.0,3.85
Akdepe,42.0551,59.3788,0,38,0,0,TM,1634954673,37.4,2.0,9.06
Esmeralda,21.8525,-78.1169,0,88,0,0,CU,1634954673,76.24,91.0,1.36
Makaleng,-20.9,27.2833,0,48,0,0,BW,1634954674,72.18,0.0,3.53
Usol'ye,59.4268,56.6808,0,90,0,0,RU,1634954674,44.89,100.0,11.54
Gamba,-2.65,10.0,0,88,0,0,GA,1634954674,76.35,100.0,5.79
Tame,6.461,-71.73,0,76,0,0,CO,1634954675,74.43,33.0,4.38
nizhneyansk,0.0,0.0,0,0,0,0,,,,,
Trairi,-3.2778,-39.2689,0,81,0,0,BR,1634954575,79.43,99.0,8.3
Bartica,6.4,-58.6167,0,100,0,0,GY,1634954675,75.52,97.0,1.3
Viedma,-40.8135,-62.9967,0,84,0,0,AR,1634954676,44.91,0.0,8.52
Niono,14.2526,-5.993,0,58,0,0,ML,1634954676,83.32,31.0,5.82
attawapiskat,0.0,0.0,0,0,0,0,,,,,
Guerrero Negro,27.9769,-114.0611,0,81,0,0,MX,1634954496,66.99,0.0,15.68
Lensk,60.7253,114.9278,0,82,0,0,RU,1634954676,38.07,71.0,9.6
Lüderitz,-26.6481,15.1594,0,87,0,0,NA,1634954418,54.84,0.0,7.58
Husavik,66.0449,-17.3389,0,93,0,0,IS,1634954677,36.73,100.0,8.97
Muroto-misakicho,33.2833,134.15,0,48,0,0,JP,1634954677,64.09,0.0,10.8
Mpika,-11.8343,31.4529,0,57,0,0,ZM,1634954677,63.23,53.0,2.73
Puerto Escondido,15.85,-97.0667,0,88,0,0,MX,1634954678,76.51,100.0,3.76
Clyde River,70.4692,-68.5914,0,76,0,0,CA,1634954678,21.63,100.0,6.42
Fairbanks,64.8378,-147.7164,0,88,0,0,US,1634954506,32.49,100.0,2.71
Manaure,11.7751,-72.4445,0,75,0,0,CO,1634954543,82.89,5.0,19.35
Porto-Novo,6.4965,2.6036,0,86,0,0,BJ,1634954400,78.62,100.0,5.61
Yerofey Pavlovich,53.9667,121.9667,0,57,0,0,RU,1634954678,41.13,10.0,2.39
Rocha,-34.4833,-54.3333,0,82,0,0,UY,1634954498,58.87,100.0,4.36
Hervey Bay,-25.2986,152.8535,0,83,0,0,AU,1634954679,86.04,6.0,19.62
Tatarsk,55.219,75.9828,0,89,0,0,RU,1634954679,39.58,100.0,21.65
Maumere,-8.6199,122.2111,0,66,0,0,ID,1634954679,85.71,92.0,1.63
Mombaça,-5.7431,-39.6275,0,57,0,0,BR,1634954680,81.81,54.0,6.17
Bayan,46.0833,127.4,0,43,0,0,CN,1634954544,47.52,0.0,11.92
Jinotega,13.0917,-86.0018,0,97,0,0,NI,1634954680,66.11,100.0,3.62
Great Yarmouth,52.6083,1.7305,0,84,0,0,GB,1634954424,48.94,46.0,5.91
Hancheng,32.5186,112.3522,0,52,0,0,CN,1634954680,59.81,80.0,3.53
Saint George,37.1041,-113.5841,0,25,0,0,US,1634954543,72.95,1.0,4.0
Kiama,-34.6833,150.8667,0,70,0,0,AU,1634954681,82.99,53.0,13.0
Zlobin,45.2924,14.6541,0,93,0,0,HR,1634954681,50.16,75.0,2.3
Medina,24.4686,39.6142,0,16,0,0,SA,1634954681,75.63,0.0,5.75
Vila Franca do Campo,37.7167,-25.4333,0,84,0,0,PT,1634954682,70.21,96.0,6.31
sandavagur,0.0,0.0,0,0,0,0,,,,,
Jiuquan,39.7432,98.5174,0,28,0,0,CN,1634954682,47.82,0.0,3.49
Anantapur,14.6833,77.6,0,83,0,0,IN,1634954682,77.34,97.0,4.83
Bandarbeyla,9.4942,50.8122,0,81,0,0,SO,1634954683,76.5,57.0,3.33
vaitupu,0.0,0.0,0,0,0,0,,,,,
Waipawa,-41.4122,175.5153,0,54,0,0,NZ,1634954683,57.31,98.0,12.21
Benguela,-12.5763,13.4055,0,75,0,0,AO,1634954683,74.3,99.0,2.59
Havøysund,70.9963,24.6622,0,60,0,0,NO,1634954684,32.88,100.0,11.74
Ust-Nera,64.5667,143.2,0,90,0,0,RU,1634954684,10.89,88.0,0.65
Mandera,3.9366,41.867,0,70,0,0,KE,1634954525,78.35,7.0,9.26
Hrubieszów,50.805,23.8925,0,61,0,0,PL,1634954684,46.04,63.0,18.57
Chumikan,54.7183,135.315,0,67,0,0,RU,1634954685,41.97,91.0,22.26
tabiauea,0.0,0.0,0,0,0,0,,,,,
Mawlaik,23.6333,94.4167,0,88,0,0,MM,1634954685,74.93,64.0,1.83
Zile,40.3031,35.8864,0,32,0,0,TR,1634954685,33.12,0.0,1.66
paytug,0.0,0.0,0,0,0,0,,,,,
Tefé,-3.3542,-64.7114,0,83,0,0,BR,1634954671,75.02,11.0,0.47
Tautira,-17.7333,-149.15,0,87,0,0,PF,1634954508,73.42,67.0,33.31
Quelimane,-17.8786,36.8883,0,84,0,0,MZ,1634954686,67.48,7.0,4.43
Amahai,-3.3333,128.9167,0,69,0,0,ID,1634954686,84.38,71.0,3.09
Minas,-34.3759,-55.2377,0,94,0,0,UY,1634954427,57.67,100.0,13.67
Bethel,41.3712,-73.414,0,74,0,0,US,1634954513,59.92,100.0,5.28
Banda Aceh,5.5577,95.3222,0,73,0,0,ID,1634954687,82.2,93.0,2.15
Zhob,31.3411,69.4481,0,31,0,0,PK,1634954436,55.45,0.0,2.68
Tadine,-21.55,167.8833,0,72,0,0,NC,1634954494,78.48,2.0,3.18
Dingle,10.9995,122.6711,0,79,0,0,PH,1634954687,82.92,59.0,11.95
kuche,0.0,0.0,0,0,0,0,,,,,
Tiksi,71.6872,128.8694,0,96,0,0,RU,1634954481,4.1,100.0,2.24
La Palma,33.8464,-118.0467,0,81,0,0,US,1634954688,68.41,1.0,3.0
Morón,-34.6534,-58.6198,0,91,0,0,AR,1634954688,59.99,100.0,5.01
Longyearbyen,78.2186,15.6401,0,86,0,0,SJ,1634954507,19.24,75.0,2.3
Esil,51.9556,66.4042,0,76,0,0,KZ,1634954688,41.77,15.0,21.0
Forio,40.7342,13.8646,0,81,0,0,IT,1634954688,68.32,22.0,4.14
Sittwe,20.15,92.9,0,79,0,0,MM,1634954689,77.79,100.0,3.87
Ixtapa,20.7,-105.2,0,93,0,0,MX,1634954360,78.75,88.0,0.6
Bosaso,11.2842,49.1816,0,62,0,0,SO,1634954689,76.59,90.0,5.44
La Ronge,55.1001,-105.2842,0,80,0,0,CA,1634954689,34.02,75.0,11.5
Abhā,18.2164,42.5053,0,41,0,0,SA,1634954690,53.85,0.0,0.0
Mercedes,-34.6515,-59.4307,0,91,0,0,AR,1634954677,57.85,100.0,12.62
Pisco,-13.7,-76.2167,0,86,0,0,PE,1634954423,61.02,9.0,0.67
sentyabrskiy,0.0,0.0,0,0,0,0,,,,,
Ürümqi,43.801,87.6005,0,93,0,0,CN,1634954406,34.75,90.0,6.71
Turtucaia,44.05,26.6167,0,66,0,0,BG,1634954690,60.15,100.0,6.02
Lorengau,-2.0226,147.2712,0,65,0,0,PG,1634954487,86.02,71.0,8.01
blonduos,0.0,0.0,0,0,0,0,,,,,
Adra,36.7496,-3.0206,0,66,0,0,ES,1634954691,65.44,99.0,0.65
Sitka,57.0531,-135.33,0,71,0,0,US,1634954691,46.29,90.0,14.97
Deputatsky,69.3,139.9,0,96,0,0,RU,1634954691,-0.74,95.0,0.25
Whitecourt,54.1502,-115.6855,0,87,0,0,CA,1634954414,38.44,90.0,2.3
Sola,-13.8833,167.55,0,75,0,0,VU,1634954692,81.28,87.0,11.86
Lisala,2.15,21.5167,0,98,0,0,CD,1634954692,69.15,25.0,1.97
Ambo,-10.1308,-76.2047,0,75,0,0,PE,1634954692,65.86,76.0,3.96
Tabuk,17.4189,121.4443,0,71,0,0,PH,1634954693,82.51,24.0,4.41
Camacha,33.0833,-16.3333,0,68,0,0,PT,1634954693,65.62,75.0,6.91
Sangar,63.9242,127.4739,0,95,0,0,RU,1634954693,20.55,100.0,7.16
Chokurdakh,70.6333,147.9167,0,99,0,0,RU,1634954266,-10.97,98.0,2.84
hihifo,0.0,0.0,0,0,0,0,,,,,
Tilichiki,60.4667,166.1,0,80,0,0,RU,1634954694,10.81,16.0,6.04
Lompoc,34.6391,-120.4579,0,90,0,0,US,1634954401,67.01,90.0,18.01
Verkhniye Kigi,55.4083,58.6044,0,89,0,0,RU,1634954694,46.78,100.0,17.4
Nelson Bay,-32.7167,152.15,0,68,0,0,AU,1634954694,88.29,1.0,4.0
Paraná,-31.732,-60.5238,0,58,0,0,AR,1634954695,71.51,100.0,10.54
Laurel,39.0993,-76.8483,0,82,0,0,US,1634954396,60.44,1.0,0.0
Sardārshahr,28.4333,74.4833,0,53,0,0,IN,1634954695,72.59,0.0,12.48
Orlik,52.5178,99.825,0,44,0,0,RU,1634954695,29.95,25.0,2.91
Pimenta Bueno,-11.6725,-61.1936,0,90,0,0,BR,1634954696,75.56,95.0,3.74
Kavieng,-2.5744,150.7967,0,67,0,0,PG,1634954495,84.97,21.0,13.56
Lushnjë,40.9419,19.705,0,69,0,0,AL,1634954696,62.78,98.0,4.9
Riyadh,24.6877,46.7219,0,34,0,0,SA,1634954696,68.14,2.0,4.61
Forsytheganj,52.6333,29.7333,0,59,0,0,BY,1634954420,43.29,14.0,14.72
Black River,18.0264,-77.8487,0,81,0,0,JM,1634954600,78.98,90.0,4.5
Rockland,41.1668,-74.0496,0,77,0,0,US,1634954407,60.78,100.0,7.67
Kindu,-2.95,25.95,0,98,0,0,CD,1634954697,68.36,97.0,0.63
Banjar,-8.19,114.9675,0,54,0,0,ID,1634954697,85.91,68.0,2.95
Gouyave,12.1646,-61.7296,0,74,0,0,GD,1634954698,83.17,40.0,14.97
Silver City,32.7701,-108.2803,0,39,0,0,US,1634954432,66.63,40.0,4.0
Kruisfontein,-34.0033,24.7314,0,55,0,0,ZA,1634954492,62.89,100.0,8.12
Nantucket,41.2835,-70.0995,0,88,0,0,US,1634954424,63.0,34.0,16.67
Laichow,37.1717,119.9214,0,50,0,0,CN,1634954698,56.39,100.0,2.51
Altamirano,16.8833,-92.15,0,99,0,0,MX,1634954698,57.61,100.0,1.1
marcona,0.0,0.0,0,0,0,0,,,,,
Sisimiut,66.9395,-53.6735,0,73,0,0,GL,1634954699,21.07,8.0,8.7
Lavrentiya,65.5833,-171.0,0,83,0,0,RU,1634954467,23.88,100.0,12.33
Sorong,-0.8833,131.25,0,60,0,0,ID,1634954699,84.99,52.0,1.57
Westport,41.1415,-73.3579,0,66,0,0,US,1634954493,62.58,90.0,8.01
ardistan,0.0,0.0,0,0,0,0,,,,,
louisbourg,0.0,0.0,0,0,0,0,,,,,
Cidreira,-30.1811,-50.2056,0,87,0,0,BR,1634954445,64.96,0.0,9.6
Pederneiras,-22.3517,-48.775,0,53,0,0,BR,1634954700,69.48,0.0,4.63
Sukpak,51.6667,94.6333,0,41,0,0,RU,1634954700,37.22,100.0,2.33
Talaya,61.3833,152.75,0,69,0,0,RU,1634954701,5.54,99.0,2.89
Kieta,-6.2167,155.6333,0,67,0,0,PG,1634954433,85.5,24.0,7.0
Norman Wells,65.282,-126.8329,0,88,0,0,CA,1634954490,36.64,100.0,11.39
Qaqortoq,60.7167,-46.0333,0,98,0,0,GL,1634954437,37.9,100.0,0.94
Vostok,46.4856,135.8833,0,57,0,0,RU,1634954565,40.48,19.0,6.64
Lárdos,36.0942,28.0157,0,72,0,0,GR,1634954701,62.94,0.0,4.5
Damietta,31.4165,31.8133,0,66,0,0,EG,1634954702,70.68,4.0,10.63
Kidal,18.4411,1.4078,0,23,0,0,ML,1634954703,83.84,16.0,7.94
George,-33.963,22.4617,0,48,0,0,ZA,1634954703,62.15,75.0,12.66
Carauari,-4.8828,-66.8958,0,87,0,0,BR,1634954704,76.32,64.0,0.85
Richards Bay,-28.783,32.0377,0,88,0,0,ZA,1634954491,66.81,3.0,3.09
satitoa,0.0,0.0,0,0,0,0,,,,,
Chengde,40.9725,117.9361,0,42,0,0,CN,1634954704,49.32,0.0,1.57
Touros,-5.1989,-35.4608,0,80,0,0,BR,1634954705,81.5,25.0,10.31
Codrington,-38.2667,141.9667,0,76,0,0,AU,1634954705,56.79,62.0,14.47
Amga,60.8953,131.9608,0,83,0,0,RU,1634954509,30.61,100.0,4.68
Mokokchūng,26.3333,94.5333,0,68,0,0,IN,1634954705,66.09,0.0,0.81
Nouakchott,18.0858,-15.9785,0,50,0,0,MR,1634954706,75.13,100.0,12.5
Charters Towers,-20.1,146.2667,0,25,0,0,AU,1634954706,94.53,45.0,9.01
Constitución,-35.3333,-72.4167,0,84,0,0,CL,1634954519,49.17,1.0,13.13
Acaraú,-2.8856,-40.12,0,81,0,0,BR,1634954706,79.54,76.0,10.49
Arlit,18.7369,7.3853,0,15,0,0,NE,1634954507,84.45,20.0,10.71
Conde,-7.2597,-34.9075,0,83,0,0,BR,1634954707,78.26,40.0,4.61
Pemangkat,1.1667,108.9667,0,71,0,0,ID,1634954707,82.04,27.0,3.18
Zhigansk,66.7697,123.3711,0,95,0,0,RU,1634954242,19.35,96.0,4.68
hunza,0.0,0.0,0,0,0,0,,,,,
Biak,-0.9131,122.8766,0,63,0,0,ID,1634954509,84.43,92.0,4.59
lolua,0.0,0.0,0,0,0,0,,,,,
Iporá,-16.4419,-51.1178,0,64,0,0,BR,1634954708,74.8,1.0,2.62
Gigant,46.5066,41.3419,0,88,0,0,RU,1634954708,54.09,2.0,9.17
Monforte de Lemos,42.5216,-7.5142,0,94,0,0,ES,1634954708,50.58,1.0,1.39
Kudahuvadhoo,2.6708,72.8944,0,71,0,0,MV,1634954709,82.31,28.0,11.95
South Venice,27.0531,-82.4243,0,84,0,0,US,1634954709,79.99,10.0,5.75
Jijiga,9.35,42.8,0,46,0,0,ET,1634954709,59.29,0.0,8.1
Ode,7.7899,5.7117,0,98,0,0,NG,1634954709,69.94,100.0,3.47
Örnsköldsvik,63.2909,18.7153,0,93,0,0,SE,1634954710,31.82,75.0,11.5
Lagoa,39.05,-27.9833,0,85,0,0,PT,1634954438,67.55,43.0,13.58
tabukiniberu,0.0,0.0,0,0,0,0,,,,,
São João da Barra,-21.6403,-41.0511,0,80,0,0,BR,1634954455,69.15,17.0,6.8
Province of Mantua,45.1667,10.7833,0,96,0,0,IT,1634954710,57.81,0.0,1.01
Salalah,17.0151,54.0924,0,75,0,0,OM,1634954513,74.12,78.0,3.22
Turaif,31.6725,38.6637,0,34,0,0,SA,1634954517,64.96,0.0,7.16
Feijó,-8.1642,-70.3536,0,82,0,0,BR,1634954711,77.7,82.0,2.15
Kamra,33.7473,73.5111,0,82,0,0,PK,1634954711,53.96,98.0,9.33
Mossamedes,-15.1961,12.1522,0,69,0,0,AO,1634954567,64.51,68.0,9.51
Kuandian,40.7286,124.7847,0,45,0,0,CN,1634954711,50.43,0.0,1.32
Dauriya,49.9333,116.8667,0,70,0,0,RU,1634954712,33.08,0.0,1.54
Yangi Marg`ilon,40.4272,71.7189,0,70,0,0,UZ,1634954485,38.62,23.0,4.61
Bima,-8.4667,118.7167,0,43,0,0,ID,1634954712,94.64,89.0,1.79
Pirovskoye,57.6267,92.2658,0,63,0,0,RU,1634954712,36.97,100.0,12.91
Pacific Grove,36.6177,-121.9166,0,88,0,0,US,1634954572,61.2,75.0,1.01
Lanzhou,36.0564,103.7922,0,70,0,0,CN,1634954713,50.29,51.0,0.83
Nova Serrana,-19.8761,-44.9836,0,71,0,0,BR,1634954713,66.49,0.0,2.15
Ambon City,-3.6954,128.1814,0,70,0,0,ID,1634954504,87.94,40.0,4.61
Whittlesea,-32.1759,26.8244,0,43,0,0,ZA,1634954713,54.5,29.0,11.59
Ca Mau,9.1769,105.15,0,75,0,0,VN,1634954491,83.97,99.0,4.09
Labuhan,-6.8844,112.2051,0,60,0,0,ID,1634954553,86.95,71.0,3.83
Caconda,-13.7333,15.0667,0,73,0,0,AO,1634954714,63.18,10.0,0.72
Mengcheng,33.2579,116.5655,0,44,0,0,CN,1634954714,60.37,0.0,4.41
Yueyang,29.3333,113.0919,0,57,0,0,CN,1634954714,61.34,0.0,3.53
Presidente Olegário,-18.4178,-46.4181,0,65,0,0,BR,1634954715,67.37,0.0,1.34
Belmonte,-15.8631,-38.8828,0,91,0,0,BR,1634954715,77.5,100.0,9.33
Yarqā,31.9785,35.6947,0,81,0,0,JO,1634954716,64.45,0.0,1.52
Nuuk,64.1835,-51.7216,0,50,0,0,GL,1634954588,29.01,0.0,29.93
eskasem,0.0,0.0,0,0,0,0,,,,,
Corn Island,12.1694,-83.0418,0,76,0,0,NI,1634954716,82.9,92.0,9.53
Pangnirtung,66.1451,-65.7125,0,58,0,0,CA,1634954552,24.3,86.0,8.08
Lyudinovo,53.8664,34.4478,0,72,0,0,RU,1634954717,41.61,89.0,10.74
Gemena,3.25,19.7667,0,98,0,0,CD,1634954717,69.94,61.0,1.01
Bílovice nad Svitavou,49.2471,16.6725,0,67,0,0,CZ,1634954717,46.42,0.0,1.01
Iwanai,42.9744,140.5089,0,72,0,0,JP,1634954718,48.04,17.0,7.72
Medicine Hat,50.0501,-110.6683,0,43,0,0,CA,1634954718,54.84,89.0,11.01
Hay River,60.8156,-115.7999,0,58,0,0,CA,1634954718,41.45,39.0,16.37
jujuy,0.0,0.0,0,0,0,0,,,,,
Abū Zabad,12.35,29.25,0,49,0,0,SD,1634954573,81.79,70.0,3.78
Samarai,-10.6167,150.6667,0,74,0,0,PG,1634954719,81.95,100.0,13.82
okandja,0.0,0.0,0,0,0,0,,,,,
warqla,0.0,0.0,0,0,0,0,,,,,
gangotri,0.0,0.0,0,0,0,0,,,,,
Nur-Sultan,51.1801,71.446,0,81,0,0,KZ,1634954719,39.15,75.0,26.84
Poputnaya,44.5125,41.4392,0,58,0,0,RU,1634954719,49.73,0.0,5.26
Sobolevo,54.4299,31.8996,0,66,0,0,RU,1634954497,42.42,85.0,17.02
Ajjampur,13.7281,76.0094,0,85,0,0,IN,1634954720,72.59,97.0,2.44
Maputo,-25.9653,32.5892,0,83,0,0,MZ,1634954720,68.23,0.0,1.01
Bosanski Brod,45.1375,17.9897,0,90,0,0,BA,1634954720,52.12,100.0,9.19
yomitan,0.0,0.0,0,0,0,0,,,,,
Fortuna,40.5982,-124.1573,0,74,0,0,US,1634954263,57.36,90.0,5.99
Huari,-9.3333,-77.2333,0,82,0,0,PE,1634954721,47.32,99.0,3.94
Miles City,46.4083,-105.8406,0,46,0,0,US,1634954391,53.51,38.0,10.65
Āsosa,10.0667,34.5333,0,62,0,0,ET,1634954721,60.24,56.0,5.73
Tura,25.5198,90.2201,0,71,0,0,IN,1634954494,71.82,0.0,2.48
Tiarei,-17.5333,-149.3333,0,94,0,0,PF,1634954722,73.42,86.0,28.88
Leshukonskoye,64.8989,45.7622,0,93,0,0,RU,1634954722,27.55,100.0,8.52
Takoradze,4.8845,-1.7554,0,88,0,0,GH,1634954491,77.09,100.0,6.17
Moyale,3.5167,39.0584,0,73,0,0,KE,1634954723,67.71,11.0,6.42
Copiapó,-27.3667,-70.3333,0,70,0,0,CL,1634954428,56.64,45.0,1.88
Alofi,-19.0595,-169.9187,0,62,0,0,NU,1634954723,74.17,100.0,17.4
solovetskiy,0.0,0.0,0,0,0,0,,,,,
Nakatsugawa,35.4833,137.5,0,40,0,0,JP,1634954425,63.1,4.0,6.85
sorvag,0.0,0.0,0,0,0,0,,,,,
Korčula,42.9622,17.1369,0,79,0,0,HR,1634954723,60.57,90.0,13.33
Egvekinot,66.3167,-179.1667,0,83,0,0,RU,1634954724,12.11,100.0,6.87
Twentynine Palms,34.1356,-116.0542,0,17,0,0,US,1634954724,74.14,66.0,5.66
Urdoma,61.7533,48.5442,0,85,0,0,RU,1634954724,39.52,95.0,10.94
Uzhur,55.3036,89.8339,0,60,0,0,RU,1634954725,35.87,100.0,15.1
mys shmidta,0.0,0.0,0,0,0,0,,,,,
Ryōtsu-minato,38.0833,138.4333,0,51,0,0,JP,1634954725,55.36,83.0,19.66
Chapais,49.7834,-74.8492,0,81,0,0,CA,1634954725,29.98,100.0,2.68
Arica,-18.475,-70.3042,0,82,0,0,CL,1634954490,60.62,28.0,2.71
Srednekolymsk,67.45,153.6833,0,89,0,0,RU,1634954726,-1.53,54.0,1.16
Xining,36.6167,101.7667,0,66,0,0,CN,1634954726,44.2,38.0,1.1
Yangambi,0.8102,24.4336,0,93,0,0,CD,1634954546,66.99,90.0,0.94
Ola,59.5833,151.2833,0,74,0,0,RU,1634954726,24.46,100.0,14.29
Nouadhibou,20.931,-17.0347,0,78,0,0,MR,1634954508,70.2,73.0,15.5
Mangai,-4.05,19.5333,0,98,0,0,CD,1634954727,68.72,94.0,0.58
Saint Anthony,45.0205,-93.218,0,70,0,0,US,1634954727,44.22,90.0,1.99
Natal,-5.795,-35.2094,0,83,0,0,BR,1634954728,81.25,75.0,9.22
Dwārka,22.2394,68.9678,0,66,0,0,IN,1634954451,79.86,15.0,13.82
Susurluk,39.9136,28.1578,0,57,0,0,TR,1634954728,52.84,0.0,4.9
karauzyak,0.0,0.0,0,0,0,0,,,,,
Port Augusta,-32.5,137.7667,0,48,0,0,AU,1634954728,69.71,61.0,18.61
Manbij,36.5281,37.9549,0,32,0,0,SY,1634954729,48.97,0.0,5.95
Necochea,-38.5473,-58.7368,0,91,0,0,AR,1634954686,52.03,100.0,4.47
Port-Cartier,50.0334,-66.8654,0,93,0,0,CA,1634954729,48.42,100.0,7.65
Lábrea,-7.2586,-64.7981,0,82,0,0,BR,1634954729,77.49,94.0,2.3
Nishihara,26.1842,127.7558,0,57,0,0,JP,1634954466,74.68,75.0,16.11
Le Havre,49.4938,0.1077,0,84,0,0,FR,1634954447,54.52,90.0,11.5
Upata,8.0086,-62.3989,0,95,0,0,VE,1634954730,74.19,100.0,4.52
Keminmaa,65.8596,24.8228,0,80,0,0,FI,1634954730,26.37,0.0,10.36
Malakwal,32.5536,73.2123,0,73,0,0,PK,1634954730,67.5,73.0,9.26
Mānsa,29.9833,75.3833,0,51,0,0,IN,1634954731,70.5,0.0,7.47
Itarema,-2.9248,-39.9167,0,80,0,0,BR,1634954497,79.57,70.0,10.67
Cockburn Town,21.4612,-71.1419,0,75,0,0,TC,1634954731,83.46,96.0,19.06
Yauya,-8.9833,-77.3,0,73,0,0,PE,1634954731,53.33,96.0,4.94
Yadgir,16.7667,77.1333,0,61,0,0,IN,1634954732,74.7,63.0,1.66
Port Lincoln,-34.7333,135.8667,0,52,0,0,AU,1634954732,60.28,9.0,16.96
Iqaluit,63.7506,-68.5145,0,86,0,0,CA,1634954691,25.7,90.0,15.01
Cienfuegos,22.1461,-80.4356,0,94,0,0,CU,1634954732,75.34,97.0,5.75
Lahad Datu,5.0268,118.327,0,86,0,0,MY,1634954733,80.44,100.0,5.01
Indiana,40.0003,-86.2503,0,94,0,0,US,1634954733,51.96,90.0,6.91
Buala,-8.145,159.5921,0,66,0,0,SB,1634954733,86.07,30.0,8.99
Marsá Maţrūḩ,31.3525,27.2453,0,64,0,0,EG,1634954481,66.9,0.0,4.63
Rio Grande,-32.035,-52.0986,0,84,0,0,BR,1634954515,59.95,9.0,8.41
Ucluelet,48.9329,-125.5528,0,88,0,0,CA,1634954428,54.09,100.0,7.65
Pakhtakoron,40.1571,68.7466,0,63,0,0,TJ,1634954734,41.74,3.0,7.92
Taos,36.4072,-105.5731,0,25,0,0,US,1634954734,55.8,1.0,4.61
El Sauzal de Rodríguez,31.9,-116.6833,0,87,0,0,MX,1634954610,60.42,16.0,5.5
Karasburg,-28.0167,18.75,0,67,0,0,NA,1634954734,49.66,0.0,15.08
Iquique,-20.2208,-70.1431,0,74,0,0,CL,1634954505,59.9,46.0,2.1
Muravlenko,63.7898,74.523,0,95,0,0,RU,1634954735,30.54,100.0,14.16
Aleksandrovsk-Sakhalinskiy,50.8975,142.1561,0,67,0,0,RU,1634954735,42.19,90.0,12.37
Rørvik,64.8621,11.2373,0,72,0,0,NO,1634954735,40.33,96.0,3.18
Ayr,55.4627,-4.6339,0,93,0,0,GB,1634954456,49.48,75.0,8.05
Key West,24.5557,-81.7826,0,74,0,0,US,1634954291,79.0,100.0,7.34
Riviere-au-Renard,48.9957,-64.3971,0,96,0,0,CA,1634954736,52.09,91.0,4.9
Lagoa Formosa,-18.7786,-46.4075,0,59,0,0,BR,1634954736,67.87,0.0,2.01
Bilibino,68.0546,166.4372,0,97,0,0,RU,1634954561,-0.78,98.0,1.97
dien bien,0.0,0.0,0,0,0,0,,,,,
Brits,-25.6347,27.7802,0,24,0,0,ZA,1634954737,65.82,0.0,3.36
Loandjili,-4.7561,11.8578,0,84,0,0,CG,1634954737,77.56,100.0,4.38
Fjerritslev,57.0813,9.2664,0,60,0,0,DK,1634954737,48.81,3.0,30.91
Ust-Maya,60.4167,134.5333,0,77,0,0,RU,1634954737,29.73,100.0,5.48
Mishelevka,52.8575,103.1719,0,66,0,0,RU,1634954738,38.19,12.0,4.34
Kaeo,-35.1,173.7833,0,97,0,0,NZ,1634954566,60.33,100.0,18.97
Iskateley,67.6803,53.1512,0,95,0,0,RU,1634954738,25.09,34.0,7.47
Kango,0.1943,10.0951,0,99,0,0,GA,1634954738,73.58,100.0,0.54
Marrakesh,31.6315,-8.0083,0,72,0,0,MA,1634954739,59.07,20.0,5.75
Atambua,-9.1061,124.8925,0,54,0,0,ID,1634954739,88.18,41.0,4.85
Hūn,29.1268,15.9477,0,32,0,0,LY,1634954739,72.36,58.0,11.72
Kenai,60.5544,-151.2583,0,81,0,0,US,1634954571,41.14,99.0,11.18
Kumul,42.8,93.45,0,29,0,0,CN,1634954740,54.25,13.0,10.18
Saint-Leu,-21.15,55.2833,0,90,0,0,RE,1634954499,72.43,1.0,3.11
Dūkštas,55.5333,26.3333,0,85,0,0,LT,1634954740,39.63,49.0,12.64
Diapaga,12.0708,1.7889,0,67,0,0,BF,1634954539,77.7,98.0,5.37
Hihyā,30.6713,31.588,0,78,0,0,EG,1634954741,68.88,0.0,6.87
Coos Bay,43.3665,-124.2179,0,91,0,0,US,1634954525,57.85,90.0,9.22
Xingcheng,40.6167,120.7167,0,37,0,0,CN,1634954741,54.77,0.0,4.32
Soverato Marina,38.685,16.5499,0,64,0,0,IT,1634954741,64.89,90.0,4.21
Kathmandu,27.7167,85.3167,0,94,0,0,NP,1634954741,64.62,75.0,3.44
Ngunguru,-35.6167,174.5,0,95,0,0,NZ,1634954458,60.17,100.0,24.2
Teya,60.3778,92.6267,0,78,0,0,RU,1634954742,32.77,97.0,13.06
Maridi,4.9158,29.4742,0,95,0,0,SS,1634954742,66.51,100.0,2.19
Shelburne,44.0787,-80.2041,0,87,0,0,CA,1634954743,40.57,100.0,2.48
Raudeberg,61.9875,5.1352,0,79,0,0,NO,1634954743,43.47,96.0,1.99
Watertown,42.3709,-71.1828,0,67,0,0,US,1634954636,60.39,1.0,5.01
Gushikawa,26.3544,127.8686,0,57,0,0,JP,1634954743,74.79,75.0,13.8
Sydney,-33.8679,151.2073,0,60,0,0,AU,1634954036,89.35,0.0,11.99
Altamont,42.2068,-121.7372,0,79,0,0,US,1634954558,45.79,1.0,9.22
Mahon,39.8885,4.2658,0,63,0,0,ES,1634954744,64.96,20.0,23.02
Bairiki Village,1.3292,172.9752,0,62,0,0,KI,1634954744,87.8,20.0,11.5
Talnakh,69.4865,88.3972,0,97,0,0,RU,1634954489,25.7,100.0,9.06
Robertsport,6.7533,-11.3686,0,86,0,0,LR,1634954744,77.4,100.0,5.19
Zaozhuang,34.8647,117.5542,0,44,0,0,CN,1634954745,57.54,71.0,6.04
Dābhol,17.6,73.1667,0,78,0,0,IN,1634954745,73.81,24.0,4.12
Marawi,7.9986,124.2928,0,72,0,0,PH,1634954489,73.65,100.0,2.86
Henties Bay,-22.116,14.2845,0,86,0,0,NA,1634954745,58.86,0.0,5.5
Uvalde,29.3669,-99.767,0,44,0,0,US,1634954746,77.18,1.0,9.22
Gravdal,68.1214,13.5031,0,51,0,0,NO,1634954494,38.05,99.0,4.68
Piaçabuçu,-10.4056,-36.4344,0,88,0,0,BR,1634954746,77.5,5.0,9.42
Mokhsogollokh,61.4681,128.9203,0,99,0,0,RU,1634954746,33.28,100.0,5.46
Tyup,42.7276,78.3648,0,76,0,0,KG,1634954747,29.64,86.0,3.6
Bonao,18.9369,-70.4092,0,90,0,0,DO,1634954747,77.41,28.0,3.15
Kloulklubed,7.0419,134.2556,0,70,0,0,PW,1634954478,88.3,36.0,8.5
Vila do Maio,15.1333,-23.2167,0,76,0,0,CV,1634954747,77.79,3.0,10.22
Torbat-e Jām,35.244,60.6225,0,18,0,0,IR,1634954748,42.55,0.0,7.38
Lindi,-10.0,39.7167,0,87,0,0,TZ,1634954748,72.64,78.0,2.01
Opuwo,-18.0607,13.84,0,31,0,0,NA,1634954748,60.73,9.0,4.56
Pagudpud,18.5616,120.7868,0,71,0,0,PH,1634954748,85.06,91.0,14.29
Ambulu,-8.345,113.6058,0,69,0,0,ID,1634954749,83.84,100.0,3.31
santa eulalia del rio,0.0,0.0,0,0,0,0,,,,,
Kayseri Province,38.737,35.4968,0,69,0,0,TR,1634954483,32.02,0.0,2.3
Zhangjiakou,40.81,114.8794,0,34,0,0,CN,1634954749,45.39,0.0,1.95
Antofagasta,-23.65,-70.4,0,77,0,0,CL,1634954588,57.52,44.0,6.08
Mana,5.6592,-53.7767,0,89,0,0,GF,1634954735,77.83,96.0,11.05
Lázaro Cárdenas,17.9583,-102.2,0,86,0,0,MX,1634954750,78.37,100.0,4.52
Meylan,45.2199,5.7901,0,87,0,0,FR,1634954750,43.52,21.0,3.09
Warmbad,-28.45,18.7333,0,67,0,0,NA,1634954750,53.02,0.0,10.8
Beaverlodge,55.2166,-119.4361,0,92,0,0,CA,1634954750,41.59,100.0,3.67
Mitú,1.1983,-70.1733,0,93,0,0,CO,1634954751,73.85,79.0,1.81
Nioro,13.35,-15.75,0,79,0,0,GM,1634954509,75.33,40.0,5.21
Saint-Augustin,51.226,-58.6502,0,68,0,0,CA,1634954707,43.39,100.0,10.27
Estelle,29.8458,-90.1067,0,81,0,0,US,1634954751,78.8,40.0,0.0
Petropavlovsk-Kamchatskiy,53.0452,158.6483,0,70,0,0,RU,1634954736,37.99,75.0,4.47
San Andrés,12.5847,-81.7006,0,75,0,0,CO,1634954654,83.88,33.0,12.64
Puerto Armuelles,8.2833,-82.8667,0,89,0,0,PA,1634954752,78.82,100.0,5.84
Tocopilla,-22.092,-70.1979,0,67,0,0,CL,1634954752,61.12,30.0,5.61
Valentín Gómez Farías,28.2167,-106.5833,0,42,0,0,MX,1634954752,65.77,29.0,3.33
Wajir,1.7471,40.0573,0,63,0,0,KE,1634954753,76.14,84.0,11.61
Soleşti,46.7667,27.7833,0,51,0,0,RO,1634954753,57.22,100.0,4.32
Daru,-9.0763,143.2092,0,61,0,0,PG,1634954694,85.06,21.0,11.18
Lozuvatka,48.0571,33.2858,0,87,0,0,UA,1634954753,50.49,0.0,7.0
Kamenka,51.3223,42.7678,0,71,0,0,RU,1634954542,50.11,100.0,9.6
Marabu,4.4148,114.0089,0,80,0,0,MY,1634954754,80.96,100.0,5.01
Carlisle,40.2015,-77.1889,0,80,0,0,US,1634954754,58.42,100.0,2.24
Malvern,34.3623,-92.813,0,84,0,0,US,1634954754,64.71,0.0,3.8
Aksarka,66.5606,67.7975,0,96,0,0,RU,1634954755,25.63,99.0,7.96
San Jerónimo,-11.9472,-75.2829,0,68,0,0,PE,1634954755,54.79,21.0,4.23
Morondava,-20.2833,44.2833,0,81,0,0,MG,1634954559,68.67,100.0,6.02
Marzuq,14.4,46.4667,0,62,0,0,YE,1634954538,69.82,7.0,2.64
Sinnamary,5.3833,-52.95,0,89,0,0,GF,1634954382,78.04,91.0,11.16
Baykit,61.67,96.37,0,80,0,0,RU,1634954533,34.65,98.0,11.9
Llanes,43.4198,-4.7549,0,74,0,0,ES,1634954755,51.85,0.0,6.51
burica,0.0,0.0,0,0,0,0,,,,,
Cabo San Lucas,22.8909,-109.9124,0,76,0,0,MX,1634954516,81.61,0.0,4.0
mukhanovo,0.0,0.0,0,0,0,0,,,,,
Starogard Gdański,53.964,18.5264,0,100,0,0,PL,1634954756,45.05,72.0,17.31
Kattivākkam,13.2167,80.3167,0,75,0,0,IN,1634954756,82.49,56.0,5.66
Sinazongwe,-17.2614,27.4618,0,50,0,0,ZM,1634954757,77.22,14.0,2.39
Yabrūd,33.9674,36.6574,0,60,0,0,SY,1634954757,46.53,1.0,4.38
Xinzhou,38.4092,112.7333,0,47,0,0,CN,1634954757,48.34,6.0,0.4
